index,name,id,classification,mass,year,latitude,longitude
1,Aarhus,2,H6,720.0,1951.0,56.183330000000005,10.23333
2,Abee,6,EH4,107000.0,1952.0,54.21666999999999,-113.0
3,Acapulco,10,Acapulcoite,1914.0,1976.0,16.883329999999997,-99.9
4,Achiras,370,L6,780.0,1902.0,-33.16667,-64.95
5,Adhi Kot,379,EH4,4239.0,1919.0,32.1,71.8
6,Adzhi-Bogdo (stone),390,LL3-6,910.0,1949.0,44.83333,95.16667
7,Agen,392,H5,30000.0,1814.0,44.21667,0.6166699999999999
8,Aguada,398,L6,1620.0,1930.0,-31.6,-65.23333000000001
9,Aguila Blanca,417,L,1440.0,1920.0,-30.866670000000003,-64.55
10,Aioun el Atrouss,423,Diogenite-pm,1000.0,1974.0,16.39806,-9.57028
11,Aïr,424,L6,24000.0,1925.0,19.08333,8.38333
13,Akaba,426,L6,779.0,1949.0,29.51667,35.05
14,Akbarpur,427,H4,1800.0,1838.0,29.71667,77.95
15,Akwanga,432,H,3000.0,1959.0,8.91667,8.43333
16,Akyumak,433,"Iron, IVA",50000.0,1981.0,39.91667,42.81667
17,Al Rais,446,CR2-an,160.0,1957.0,24.41667,39.51667
18,Al Zarnkh,447,LL5,700.0,2001.0,13.660329999999998,28.96
19,Alais,448,CI1,6000.0,1806.0,44.11667,4.08333
20,Albareto,453,L/LL4,2000.0,1766.0,44.65,11.01667
21,Alberta,454,L,625.0,1949.0,2.0,22.66667
22,Alby sur Chéran,458,Eucrite-mmict,252.0,2002.0,45.821329999999996,6.0153300000000005
23,Aldsworth,461,LL5,700.0,1835.0,51.78333,-1.7833299999999999
24,Aleppo,462,L6,3200.0,1873.0,36.23333,37.13333
25,Alessandria,463,H5,908.0,1860.0,44.88333,8.75
26,Alexandrovsky,465,H4,9251.0,1900.0,50.95,31.816670000000002
27,Alfianello,466,L6,228000.0,1883.0,45.26667,10.15
28,Allegan,2276,H5,32000.0,1899.0,42.53333,-85.88333
29,Allende,2278,CV3,2000000.0,1969.0,26.96667,-105.31667
30,Almahata Sitta,48915,Ureilite-an,3950.0,2008.0,20.74575,32.41275
31,Alta'ameem,2284,LL5,6000.0,1977.0,35.27333,44.215559999999996
32,Ambapur Nagla,2290,H5,6400.0,1895.0,27.66667,78.25
33,Andhara,2294,Stone-uncl,2700.0,1880.0,26.58333,85.56667
34,Andover,2295,L6,3200.0,1898.0,44.61667,-70.75
35,Andreevka,2296,L3,600.0,1969.0,48.7,37.5
36,Andura,2298,H6,17900.0,1939.0,20.883329999999997,76.86667
39,Angra dos Reis (stone),2302,Angrite,1500.0,1869.0,-22.96667,-44.31667
40,Ankober,2304,H4,6500.0,1942.0,9.53333,39.71667
41,Anlong,2305,H5,2500.0,1971.0,25.15,105.18333
42,Aomori,2313,L6,320.0,1984.0,40.810559999999995,140.78556
43,Appley Bridge,2318,LL6,15000.0,1914.0,53.583330000000004,-2.71667
44,Apt,2320,L6,3200.0,1803.0,43.86667,5.38333
45,Arbol Solo,2325,H5,810.0,1954.0,-33.0,-66.0
46,Archie,2329,H6,5070.0,1932.0,38.5,-94.3
47,Arroyo Aguiar,2340,H5,7450.0,1950.0,-31.41667,-60.666669999999996
49,Ash Creek,48954,L6,9500.0,2009.0,31.805,-97.01
50,Ashdon,2346,L6,1300.0,1923.0,52.05,0.3
51,Assisi,2353,H5,2000.0,1886.0,43.03333,12.55
52,Atarra,4883,L4,1280.0,1920.0,25.254170000000002,80.625
54,Athens,4885,LL6,265.0,1933.0,34.75,-87.0
55,Atoka,4888,L6,1384.2,1945.0,34.31667,-96.15
56,Aubres,4893,Aubrite,800.0,1836.0,44.38333,5.16667
57,Aumale,4899,L6,50000.0,1865.0,36.16667,3.66667
58,Aumieres,4900,L6,2000.0,1842.0,44.33333,3.23333
59,Ausson,4903,L5,50000.0,1858.0,43.08333,0.58333
60,Avanhandava,4905,H4,9330.0,1952.0,-21.460279999999997,-49.950829999999996
61,Avce,4906,"Iron, IIAB",1230.0,1908.0,46.0,13.5
62,Avilez,4907,H,146.0,1855.0,25.0,-103.5
63,Awere,4910,L4,134.0,1968.0,2.71667,32.83333
64,Aztec,4913,L6,2830.0,1938.0,36.8,-108.0
65,Bachmut,4917,L6,18000.0,1814.0,48.6,38.0
66,Bahjoi,4922,"Iron, IAB-sLL",10322.0,1934.0,28.48333,78.5
67,Bald Mountain,4925,L4,3700.0,1929.0,35.96667,-82.48333000000001
68,Baldwyn,4926,L6,345.0,1922.0,34.5,-88.66667
69,Bali,4928,CV3,1000.0,1907.0,5.38333,16.383329999999997
70,Ban Rong Du,4934,"Iron, ungrouped",16700.0,1993.0,16.66667,101.18333
71,Bandong,4935,LL6,11500.0,1871.0,-6.91667,107.6
72,Bansur,4936,L6,15000.0,1892.0,27.7,76.33333
74,Banten,4938,CM2,629.0,1933.0,-6.33333,106.0
75,Barbotan,4942,H5,6400.0,1790.0,43.95,-0.05
77,Barea,4946,Mesosiderite-A1,3200.0,1842.0,42.38333,-2.5
80,Baroti,4949,L6,4500.0,1910.0,31.616670000000003,76.8
81,Barwell,4954,L5,44000.0,1965.0,52.56528,-1.33972
82,Bassikounou,44876,H5,29560.0,2006.0,15.78333,-5.9
83,Baszkówka,4957,L5,15500.0,1994.0,52.03333,20.93583
84,Bath,4974,H4,21000.0,1892.0,45.41667,-98.31667
85,Bath Furnace,4975,L6,86000.0,1902.0,38.25,-83.75
86,Battle Mountain,56133,L6,2900.0,2012.0,40.66813,-117.18913
87,Bawku,4976,LL5,1557.0,1989.0,11.08333,-0.18333
88,Baxter,4977,L6,611.0,1916.0,36.75,-93.5
89,Beardsley,4984,H5,16000.0,1929.0,39.8,-101.2
90,Beaver Creek,4986,H5,14000.0,1893.0,51.16667,-117.33333
91,Beddgelert,4993,H5,794.0,1949.0,53.01667,-4.1
92,Bells,5005,C2-ung,375.0,1961.0,33.6,-96.46667
94,Benares (a),5011,LL4,3700.0,1798.0,25.366670000000003,82.91667
95,Benguerir,30443,LL6,25000.0,2004.0,32.25,-8.15
96,Beni M'hira,5018,L6,19000.0,2001.0,32.86667,10.8
97,Benld,5021,H6,1770.5,1938.0,39.08333,-89.15
98,Benoni,5023,H6,3880.0,1943.0,-26.16667,28.41667
99,Bensour,5024,LL6,45000.0,2002.0,30.0,-7.0
100,Benton,5026,LL6,2840.0,1949.0,45.95,-67.55
101,Berduc,48975,L6,270.0,2008.0,-31.91,-58.32833
102,Béréba,5028,Eucrite-mmict,18000.0,1924.0,11.65,-3.65
103,Berlanguillas,5029,L6,1440.0,1811.0,41.68333,-3.8
104,Berthoud,47355,Eucrite-mmict,960.0,2004.0,40.30583,-105.02325
106,Beuste,5034,L5,2000.0,1859.0,43.21667,-0.23333
107,Beyrout,5035,LL3.8,1100.0,1921.0,33.88333,35.5
109,Bhawad,36591,LL6,678.0,2002.0,26.508329999999997,73.11528
110,Bherai,5039,L6,100.0,1893.0,20.83333,71.46667
111,Bhola,5040,LL3-6,1047.0,1940.0,22.683329999999998,90.65
112,Bholghati,5041,Howardite,2500.0,1905.0,22.08333,86.9
113,Bialystok,5042,Eucrite-pmict,4000.0,1827.0,53.1,23.2
114,Bielokrynitschie,5043,H4,1900.0,1887.0,50.13333,27.16667
115,Bilanga,5045,Diogenite,25000.0,1999.0,12.45,-0.08333
116,Binningup,5051,H5,488.1,1984.0,-33.15639,115.67638999999998
117,Birni N'konni,5056,H4,560.0,1923.0,13.766670000000001,5.3
118,Bishopville,5059,Aubrite,6000.0,1843.0,34.16667,-80.28333
119,Bishunpur,5060,LL3.15,1039.0,1895.0,25.383329999999997,82.6
120,Bjelaja Zerkov,5063,H6,1850.0,1796.0,49.78333,30.16667
121,Bjurböle,5064,L/LL4,330000.0,1899.0,60.4,25.8
122,Black Moshannan Park,5065,L5,705.0,1941.0,40.91667,-78.08333
123,Blackwell,5068,L5,2381.0,1906.0,36.83333,-97.33333
124,Blanket,5071,L6,5100.0,1909.0,31.83333,-98.83333
125,Blansko,5072,H6,470.0,1833.0,49.36667,16.633329999999997
127,Bo Xian,5090,LL3.9,7500.0,1977.0,33.83333,115.83333
129,Bogou,5097,"Iron, IAB-MG",8800.0,1962.0,12.5,0.7
130,Boguslavka,5098,"Iron, IIAB",256000.0,1916.0,44.55,131.63333
131,Borgo San Donino,5110,LL6,1676.0,1808.0,44.86667,10.05
132,Bori,5111,L6,8600.0,1894.0,21.95,78.03333
133,Boriskino,5112,CM2,1342.0,1930.0,54.23333,52.48333
134,Borkut,5113,L5,7000.0,1852.0,48.15,24.28333
135,Borodino,5114,H5,500.0,1812.0,55.46666999999999,35.86667
136,Botschetschki,5117,L4,614.0,1823.0,51.33333,33.88333
137,Boumdeid (2003),57168,L6,190.0,2003.0,17.71067,-11.3715
138,Boumdeid (2011),57167,L6,3599.0,2011.0,17.17493,-11.341330000000001
139,Bovedy,5121,L3,5460.0,1969.0,54.566669999999995,-6.33333
140,Bradford Woods,5128,L,762.0,1886.0,40.5,-80.08333
141,Braunau,5133,"Iron, IIAB",39000.0,1847.0,50.6,16.3
142,Breitscheid,5134,H5,1500.0,1956.0,50.666940000000004,8.18361
143,Bremervörde,5135,H/L3.9,7250.0,1855.0,53.4,9.1
144,Brient,5140,Eucrite-pmict,219.0,1933.0,52.13333,59.316669999999995
145,Bruderheim,5156,L6,303000.0,1960.0,53.9,-112.88333
146,Bukhara,30448,CV3,5300.0,2001.0,39.77978,64.60035
148,Bunburra Rockhole,48653,Eucrite,324.0,2007.0,-31.35,129.19
149,Bununu,5165,Howardite,357.0,1942.0,10.01667,9.58333
150,Bur-Gheluai,5169,H5,120000.0,1919.0,5.0,48.0
151,Burnwell,5175,H4-an,1504.0,1990.0,37.62194,-82.23722
152,Bursa,5177,L6,25000.0,1946.0,40.2,29.23333
153,Buschhof,5178,L6,5000.0,1863.0,46.45,25.78333
154,Bustee,5181,Aubrite,1500.0,1852.0,26.78333,82.83333
155,Butsura,5183,H6,29000.0,1861.0,27.08333,84.08333
156,Buzzard Coulee,48654,H4,41000.0,2008.0,52.996,-109.84817
157,Cabezo de Mayo,5185,L/LL6,25000.0,1870.0,37.98333,-1.16667
158,Cabin Creek,5186,"Iron, IIIAB",48500.0,1886.0,35.5,-93.5
159,Cacak,5187,OC,212.0,1919.0,43.83889,20.33333
160,Cali,45976,H/L4,478.0,2007.0,3.405,-76.51
161,Calivo,5200,Stone-uncl,2400.0,1916.0,11.75,122.33333
162,Campos Sales,5249,L5,23680.0,1991.0,-7.03333,-40.16667
163,Çanakkale,5250,L6,4000.0,1964.0,39.8,26.6
164,Cañellas,5251,H4,945.0,1861.0,41.25,1.66667
165,Cangas de Onis,5252,H5,34000.0,1866.0,43.38333,-5.15
166,Canon City,5253,H6,1400.0,1973.0,38.470279999999995,-105.24139
167,Cape Girardeau,5260,H6,2300.0,1846.0,37.26667,-89.58333
168,Capilla del Monte,5264,H6,750.0,1934.0,-30.883329999999997,-64.55
169,Carancas,45817,H4-5,342.0,2007.0,-16.66444,-69.04389
171,Castalia,5291,H5,7300.0,1874.0,36.08333,-78.06667
174,Castrovillari,5295,Stone-uncl,15000.0,1583.0,39.8,16.2
175,Caswell County,5296,OC,1360.0,1810.0,36.5,-79.25
176,Ceniceros,5306,L3.7,1025.0,1988.0,26.46667,-105.23333000000001
178,Cereseto,5308,H5,6460.0,1840.0,45.08333,8.3
179,Chadong,5313,L6,3700.0,1998.0,28.53333,109.31667
181,Chainpur,5315,LL3.4,8200.0,1907.0,25.85,83.48333000000001
182,Chajari,5316,L5,18300.0,1933.0,-30.78333,-58.05
183,Chandakapur,5320,L5,8800.0,1838.0,20.26667,76.01666999999999
184,Chandpur,5321,L6,1100.0,1885.0,27.28333,79.05
185,Changde,5322,H5,1810.0,1977.0,29.08333,111.75
186,Chantonnay,5325,L6,31500.0,1812.0,46.68333,1.05
187,Charlotte,5328,"Iron, IVA",4300.0,1835.0,36.16667,-87.33333
188,Charsonville,5329,H6,27000.0,1810.0,47.93333,1.56667
189,Charwallas,5330,H6,12000.0,1834.0,29.48333,75.5
190,Chassigny,5331,Martian (chassignite),4000.0,1815.0,47.71667,5.36667
191,Château-Renard,5332,L6,30000.0,1841.0,47.93333,2.91667
192,Chaves,5334,Howardite,2945.0,1925.0,41.93333,-7.46667
193,Chela,5338,H4,2936.0,1988.0,-3.66667,32.5
194,Chelyabinsk,57165,LL5,100000.0,2013.0,54.816669999999995,61.11666999999999
195,Chergach ,47347,H5,100000.0,2007.0,23.69639,-5.01472
196,Chernyi Bor,5339,H4,6000.0,1964.0,53.7,30.1
197,Cherokee Springs,5340,LL6,8400.0,1933.0,35.03333,-81.88333
198,Chervettaz,5341,L5,705.0,1901.0,46.55,6.816669999999999
199,Chervony Kut,5342,Eucrite-mmict,1700.0,1939.0,50.83333,34.0
201,Chiang Khan,5345,H6,367.0,1981.0,17.9,101.63333
202,Chicora,5349,LL6,303.0,1938.0,40.93333,-79.73333000000001
203,Chisenga,5355,"Iron, IIIAB",3920.0,1988.0,-10.059439999999999,33.395
205,Chitenay,5357,L6,4000.0,1978.0,47.47083,0.97667
206,Cilimus,5364,L5,1600.0,1979.0,-6.95,108.1
207,Claxton,5374,L6,1455.0,1984.0,32.1025,-81.87278
209,Colby (Wisconsin),5395,L6,104000.0,1917.0,44.9,-90.28333
210,Cold Bokkeveld,5397,CM2,5200.0,1838.0,-33.13333,19.383329999999997
211,Coleman,5401,L6,469.0,1994.0,43.761109999999995,-84.50778000000001
212,Collescipoli,5403,H5,5000.0,1890.0,42.53333,12.61667
213,Conquista,5418,H4,20350.0,1965.0,-19.85,-47.55
214,Cosina,5451,H5,1200.0,1844.0,21.16667,-100.86667
215,Cranganore,5465,L6,1460.0,1917.0,10.2,76.26666999999999
217,Cronstad,5474,H5,3650.0,1877.0,-27.7,27.3
218,Cross Roads,5476,H5,167.0,1892.0,35.63333,-78.13333
219,Crumlin,5477,L5,4255.0,1902.0,54.61666999999999,-6.21667
220,Cumberland Falls,5496,Aubrite,17000.0,1919.0,36.83333,-84.35
221,Cynthiana,5500,L/LL4,6000.0,1877.0,38.4,-84.25
222,Dahmani,5504,LL6,18000.0,1981.0,35.61667,8.83333
223,Dandapur,5511,L6,5650.0,1878.0,26.91667,83.96667
224,Daniel's Kuil,5513,EL6,1064.0,1868.0,-28.2,24.566670000000002
225,Danville,5514,L6,2000.0,1868.0,34.4,-87.06667
226,Darmstadt,6603,H5,100.0,1804.0,49.86667,8.65
227,Dashoguz,6604,H5,7000.0,1998.0,41.98444,59.685
228,Daule,51559,L5,6580.0,2008.0,-1.8708900000000002,-79.95756
229,De Cewsville,6621,H6,340.0,1887.0,43.0,-80.0
232,Demina,6649,L6,16400.0,1911.0,51.46667,84.76666999999999
233,Denver,6660,L6,230.0,1967.0,39.7825,-104.93056000000001
234,Dergaon,6664,H5,12500.0,2001.0,26.683329999999998,93.86667
235,Desuri,6693,H6,25400.0,1962.0,25.73333,73.61667
236,Devgaon,6694,H3.8,12000.0,2001.0,19.0,81.0
237,Devri-Khera,6696,L6,1140.0,1994.0,24.225,76.525
238,Dhajala,6698,H3.8,45000.0,1976.0,22.377779999999998,71.42721999999999
239,Dharwar,6699,OC,1800.0,1848.0,14.883329999999999,75.6
240,Dhurmsala,7640,LL6,32000.0,1860.0,32.23333,76.46667
241,Didim,47350,H3-5,3396.0,2007.0,37.35172,27.32997
242,Diep River,7642,L6,1000.0,1906.0,-33.75,18.566670000000002
243,Distrito Quebracho,7649,H4,400.0,1957.0,-31.883329999999997,-60.46666999999999
244,Djati-Pengilon,7652,H6,166000.0,1884.0,-7.5,111.5
245,Djermaia,7656,H,3950.0,1961.0,12.73333,15.05
246,Djoumine,7657,H5-6,10000.0,1999.0,36.95,9.55
247,Dokachi,7658,H5,3840.0,1903.0,23.5,90.33333
248,Dolgovoli,7659,L6,1600.0,1864.0,50.75,25.3
249,Domanitch,7661,L5,438.0,1907.0,40.0,29.0
250,Dong Ujimqin Qi,7706,Mesosiderite,128800.0,1995.0,45.5,119.03333
251,Donga Kohrod,7707,H6,230.0,1899.0,21.866670000000003,82.45
252,Dongtai,7708,LL6,5500.0,1970.0,32.91667,120.78333
253,Doroninsk,7718,H5-7,3891.0,1805.0,51.2,112.3
254,Dosso,7722,L6,1250.0,1962.0,13.05,3.16667
255,Douar Mghila,7723,LL6,1161.0,1932.0,32.33333,-6.3
256,Dowa,7725,Stone-uncl,642.0,1976.0,-13.666670000000002,33.91667
257,Drake Creek,7728,L6,5000.0,1827.0,36.4,-86.5
258,Dresden (Ontario),7731,H6,47700.0,1939.0,42.52,-82.26
259,Dubrovnik,7736,L3-6,1900.0,1951.0,42.45833,18.441670000000002
261,Dundrum,7745,H5,2270.0,1865.0,52.55,-8.03333
263,Durala,7750,L6,13200.0,1815.0,30.3,76.63333
264,Duruma,7752,L6,577.0,1853.0,-4.0,39.5
265,Duwun,7754,L6,2117.0,1943.0,33.43333,127.26666999999999
266,Dwaleni,7755,H4-6,3230.0,1970.0,-27.2,31.316670000000002
267,Dyalpur,7757,Ureilite,300.0,1872.0,26.25,82.0
268,Dyarrl Island,7758,Mesosiderite-A1,188.0,1933.0,-3.0,151.0
269,Eagle,7760,EL6,10000.0,1947.0,40.78167,-96.47166999999999
270,Ehole,7774,H5,2400.0,1961.0,-17.3,15.833329999999998
271,Eichstädt,7775,H5,3000.0,1785.0,48.9,11.21667
272,Ekeby,7776,H4,3336.0,1939.0,56.03333000000001,13.0
273,Ekh Khera,7777,H6,840.0,1916.0,28.26667,78.78333
274,El Idrissia,7807,L6,10000.0,1989.0,34.41667,3.25
275,El Paso de Aguila,45977,H5,17226.0,1977.0,25.37,-97.37
276,El Tigre,7819,L6,5000.0,1993.0,19.96722,-103.05167
277,Elbert,7822,LL6,680.5,1998.0,39.24667,-104.58816999999999
278,Elbogen,7823,"Iron, IID",107000.0,1399.0,50.18333,12.73333
279,Elenovka,7824,L5,54640.0,1951.0,47.83333,37.66667
280,Ellemeet,10019,Diogenite,1470.0,1925.0,51.75,4.0
281,Emmaville,10033,Eucrite-mmict,127.0,1900.0,-29.46667,151.61667
282,Enshi,10038,H5,8000.0,1974.0,30.3,109.5
283,Ensisheim,10039,LL6,127000.0,1491.0,47.86667,7.35
284,Épinal,10041,H5,277.0,1822.0,48.18333,6.46667
285,Erakot,10042,CM2,113.0,1940.0,19.03333,81.89166999999999
286,Erevan,10043,Howardite,107.2,1911.0,40.3,44.5
287,Ergheo,10044,L5,20000.0,1889.0,1.16667,44.16667
288,Erxleben,10049,H6,2250.0,1812.0,52.21667,11.25
289,Esnandes,10051,L6,1500.0,1837.0,46.25,-1.1
290,Essebi,10055,C2-ung,500.0,1957.0,2.88333,30.83333
291,Estherville,10059,Mesosiderite-A3/4,320000.0,1879.0,43.41667,-94.83333
292,Farmington,10074,L5,89400.0,1890.0,39.75,-97.03333
293,Farmville,10075,H4,56000.0,1934.0,35.55,-77.53333
294,Favars,10078,H5,1500.0,1844.0,44.38333,2.8166700000000002
295,Fayetteville,10079,H4,2360.0,1934.0,36.05,-94.16667
296,Feid Chair,10080,H4,380.0,1875.0,36.88333,8.45
297,Felix,10081,CO3.3,3200.0,1900.0,32.53333,-87.16667
299,Ferguson,10088,OC,220.0,1889.0,36.1,-81.41667
300,Fermo,10091,H3-5,10200.0,1996.0,43.18111,13.753329999999998
301,Fisher,10107,L6,17600.0,1894.0,47.81667,-96.85
302,Florence,10111,H3,3640.0,1922.0,30.83333,-97.76666999999999
303,Forest City,10119,H5,152000.0,1890.0,43.25,-93.66667
304,Forest Vale,10120,H4,26000.0,1942.0,-33.35,146.85833
305,Forksville,10123,L6,6067.0,1924.0,36.78333,-78.08333
306,Forsbach,10163,H6,240.0,1900.0,50.95,7.316669999999999
307,Forsyth,10164,L6,16300.0,1829.0,33.01667,-83.96667
309,Frankfort (stone),10177,Howardite,650.0,1868.0,34.48333,-87.83333
310,Fuhe,52412,L5,23000.0,1945.0,31.475559999999998,113.56693999999999
311,Fukutomi,10836,L5,11620.0,1882.0,33.18333,130.2
313,Futtehpur,10839,L6,4000.0,1822.0,25.95,80.81667
314,Fuyang,10840,Stone-uncl,2500.0,1977.0,32.9,115.9
315,Galapian,10846,H6,132.7,1826.0,44.3,0.4
318,Galkiv,10850,H4,5000.0,1995.0,51.68333,30.78333
319,Gambat,10851,L6,6400.0,1897.0,27.35,68.53333
321,Garhi Yasin,10860,"Iron, IIE",380.0,1917.0,27.883329999999997,68.53333
322,Garland,10861,Diogenite-pm,102.0,1950.0,41.68333,-112.13333
323,Gashua,44882,L6,4162.0,1984.0,12.85,11.03333
325,Geidam,10870,H5,725.0,1950.0,12.91667,11.91667
326,Gifu,10914,L6,14290.0,1909.0,35.53333,136.88333
327,Girgenti,10917,L6,18000.0,1853.0,37.31667,13.566670000000002
328,Git-Git,10919,L6,480.0,1947.0,9.6,9.91667
329,Glanerbrug,10923,L/LL5,670.0,1990.0,52.2,6.86667
330,Glanggang,10924,H5-6,1303.0,1939.0,-7.25,107.7
331,Glasatovo,10926,H4,152000.0,1918.0,57.35,37.61667
332,Glatton,10930,L6,767.0,1991.0,52.45972,-0.3
333,Gnadenfrei,10936,H5,1750.0,1879.0,50.66667,16.76667
334,Gopalpur,10948,H6,1600.0,1865.0,24.23333,89.05
335,Gorlovka,10949,H3.7,3618.0,1974.0,48.28333,38.08333
336,Granes,10956,L6,9000.0,1964.0,42.9,2.25
338,Grimsby,50911,H5,215.0,2009.0,43.2,-79.61667
339,Grosnaja,11206,CV3,3500.0,1861.0,43.66667,45.38333
340,Gross-Divina,11207,H5,10500.0,1837.0,49.26667,18.71667
341,Grossliebenthal,11208,L6,8000.0,1881.0,46.35,30.58333
342,Grüneberg,11426,H4,1000.0,1841.0,51.93333,15.5
343,Grzempach,11429,H5,690.0,1910.0,52.86666999999999,16.633329999999997
344,Gualeguaychú,11432,H6,22000.0,1932.0,-33.0,-58.61666999999999
345,Guangmingshan,11435,H5,2910.0,1996.0,39.80417,122.76388999999999
347,Guangrao,11437,L6,1900.0,1980.0,37.1,118.4
348,Guareña,11439,H6,39000.0,1892.0,38.73333,-6.0166699999999995
349,Guêa,11440,Stone-uncl,1915.0,1891.0,43.76667,20.23333
350,Guibga,11442,L5,288.0,1972.0,13.5,-0.68333
351,Guidder,11443,LL5,968.0,1949.0,9.91667,13.983329999999999
352,Gujargaon,11448,H5,2449.0,1982.0,22.98333,76.05
353,Gujba,11449,CBa,100000.0,1984.0,11.49167,11.65833
354,Gumoschnik,11450,H5,5700.0,1904.0,42.9,24.7
356,Gursum,11465,H4/5,34650.0,1981.0,9.36667,42.41667
357,Gütersloh,11466,H3/4,1000.0,1851.0,51.91667,8.38333
358,Gyokukei,11467,OC,1320.0,1930.0,35.0,127.5
360,Hainaut,11472,H3-6,9000.0,1934.0,50.31667,3.7333300000000005
361,Hallingeberg,11479,L3.4,1456.0,1944.0,57.816669999999995,16.23333
362,Hamlet,11485,LL4,3710.0,1959.0,41.38333,-86.6
363,Haraiya,11824,Eucrite-mmict,1000.0,1878.0,26.8,82.53333
364,Haripura,11829,CM2,315.0,1921.0,28.383329999999997,75.78333
365,Harleton,11830,L6,8360.0,1961.0,32.675,-94.51167
366,Harrison County,11842,L6,680.0,1859.0,38.25,-86.16667
367,Hashima,11848,H4,1110.6,1910.0,35.2945,136.70033
368,Hassi-Jekna,11852,"Iron, IAB-sHL",1250.0,1890.0,28.95,0.81667
369,Hatford,11855,Stone-uncl,29000.0,1628.0,51.65,-1.51667
370,Haverö,11859,Ureilite,1544.0,1971.0,60.24556,22.06194
371,Hedeskoga,11869,H5,3500.0,1922.0,55.46666999999999,13.78333
372,Hedjaz,11870,L3.7-6,6100.0,1910.0,27.33333,35.66667
373,Heredia,11875,H5,1000.0,1857.0,10.0,-84.1
374,Hessle,11878,H5,20000.0,1869.0,59.85,17.66667
375,Higashi-koen,11883,H5,750.0,1897.0,33.6,130.43333
376,High Possil,11884,L6,4500.0,1804.0,55.9,-4.2333300000000005
377,Hiroshima,11889,H5,414.0,2003.0,34.45,132.38333
378,Hoima,44714,H6,167.7,2003.0,1.345,31.47278
379,Hökmark,11893,L4,305.5,1954.0,64.43333,21.2
380,Holbrook,11894,L/LL6,220000.0,1912.0,34.9,-110.18333
381,Holetta,11895,Stone-uncl,1415.0,1923.0,9.06667,38.41667
382,Homestead,11901,L5,230000.0,1875.0,41.8,-91.86667
383,Honolulu,11904,L5,2420.0,1825.0,21.3,-157.86667
384,Hotse,11913,L6,180.0,1956.0,35.66667,115.5
385,Hoxie,11915,OC,266.1,1963.0,39.35,-100.45
386,Hraschina,11916,"Iron, IID",49000.0,1751.0,46.1,16.33333
387,Huaxi,54719,H5,1600.0,2010.0,26.46469,106.63241000000001
388,Hungen,11986,H6,112.0,1877.0,50.3,8.91667
389,Hvittis,11989,EL6,14000.0,1901.0,61.183330000000005,22.683329999999998
390,Ibbenbüren,11992,Diogenite,2000.0,1870.0,52.28333,7.7
391,Ibitira,11993,Eucrite-mmict,2500.0,1957.0,-20.0,-45.0
393,Ichkala,11995,H6,3973.0,1936.0,58.2,82.93333
394,Idutywa,12000,H5,3457.0,1956.0,-32.1,28.33333
395,Iguaracu,12003,H5,1200.0,1977.0,-23.2,-51.83333
396,Ijopega,12004,H6,7330.0,1975.0,-6.03333,145.36667
397,Indarch,12027,EH4,27000.0,1891.0,39.75,46.66667
398,Independence,12028,L6,880.0,1917.0,39.08333,-94.4
399,Inner Mongolia,12037,L6,3000.0,1963.0,41.0,112.0
400,Innisfree,12039,L5,4576.0,1977.0,53.415,-111.3375
401,Ipiranga,12043,H6,7000.0,1972.0,-25.5,-54.5
402,Ishinga,12049,H,1300.0,1954.0,-8.93333,33.8
403,Isthilart,12053,H5,3050.0,1928.0,-31.183329999999998,-57.95
404,Itapicuru-Mirim,12056,H5,2024.0,1879.0,-3.4,-44.33333
405,Itqiy,12058,EH7-an,4720.0,1990.0,26.59083,-12.952169999999999
406,Ivuna,12063,CI1,704.5,1938.0,-8.41667,32.43333
407,Jackalsfontein,12065,L6,48000.0,1903.0,-32.5,21.9
408,Jajh deh Kot Lalu,12067,EL6,973.0,1926.0,26.75,68.41667
410,Jalandhar,12069,Iron,1967.0,1621.0,31.0,75.0
412,Jartai,12074,L6,20500.0,1979.0,39.7,105.8
413,Jelica,12078,LL6,34000.0,1889.0,43.83333,20.441670000000002
415,Jesenice,51589,L6,3667.0,2009.0,46.42137,14.052170000000002
416,Jhung,12085,L5,5900.0,1873.0,31.3,72.38333
417,Jiange,12086,H5,222.0,1964.0,31.91667,104.91667
418,Jianshi,12087,"Iron, IIIAB",600000.0,1890.0,30.808329999999998,109.5
419,Jilin,12171,H5,4000000.0,1976.0,44.05,126.16667
420,Jodiya,47362,L5,100.0,2006.0,22.68,70.31333000000001
422,Johnstown,12198,Diogenite,40300.0,1924.0,40.35,-104.9
423,Jolomba,12199,LL6,483.0,1974.0,-11.85,15.833329999999998
424,Jonzac,12202,Eucrite-mmict,5000.0,1819.0,45.43333,-0.45
425,Juancheng,12203,H5,100000.0,1997.0,35.5,115.41667
426,Judesegeri,12207,H6,680.0,1876.0,12.85,76.8
427,Jumapalo,12209,L6,32490.0,1984.0,-7.71667,111.2
428,Junan,12210,L6,950.0,1976.0,35.2,118.8
429,Juromenha,12213,"Iron, IIIAB",25250.0,1968.0,38.74028,-7.27
430,Juvinas,12214,Eucrite-mmict,91000.0,1821.0,44.71667,4.3
431,Kaba,12218,CV3,3000.0,1857.0,47.35,21.3
432,Kabo,12220,H4,13400.0,1971.0,11.85,8.21667
434,Kaee,12222,H5,230.0,1838.0,27.25,79.96667
435,Kagarlyk,12227,L6,1900.0,1908.0,49.86667,30.83333
436,Kaidun,12228,CR2,2000.0,1980.0,15.0,48.3
437,Kainsaz,12229,CO3.2,200000.0,1937.0,55.433330000000005,53.25
438,Kakangari,12230,K3,350.0,1890.0,12.38333,78.51666999999999
439,Kakowa,12231,L6,577.0,1858.0,45.13333,21.66667
440,Kalaba,12232,H4,950.0,1951.0,-6.83333,29.5
441,Kalumbi,12236,L6,4500.0,1879.0,17.83333,73.98333000000001
442,Kamalpur,12238,L6,2770.0,1942.0,26.03333,81.46667
443,Kamiomi,12240,H5,448.0,1913.0,36.04167,139.95667
444,Kamsagar,12241,L6,1293.0,1902.0,14.183329999999998,75.8
445,Kandahar (Afghanistan),12243,L6,299.0,1959.0,31.6,65.78333
446,Kangean,12245,H5,1630.0,1908.0,-7.0,115.5
447,Kangra Valley,12246,H5,400.0,1897.0,32.08333,76.3
448,Kapoeta,12251,Howardite,11355.0,1942.0,4.7,33.63333
449,Kaprada,47357,L5/6,1600.0,2004.0,20.33916,73.22329
450,Kaptal-Aryk,12253,L6,3500.0,1937.0,42.45,73.36667
451,Karakol,12256,LL6,3000.0,1840.0,47.21667,81.01666999999999
452,Karatu,12258,LL6,2220.0,1963.0,-3.5,35.58333
453,Karewar,12260,L6,180.0,1949.0,12.9,7.15
454,Karkh,12262,L6,22000.0,1905.0,27.8,67.16667
455,Karloowala,12263,L6,2950.0,1955.0,31.58333,71.6
456,Karoonda,12264,CK4,41730.0,1930.0,-35.08333,139.91666999999998
457,Kasamatsu,12266,H,710.0,1938.0,35.36667,136.76667
458,Kasauli,30740,H4,16820.0,2003.0,29.58333,77.58333
459,Katagum,35465,L6,1500.0,1999.0,11.33333,10.08333
460,Kavarpura,47351,"Iron, IIE-an",6800.0,2006.0,25.14333,75.81333000000001
461,Kayakent,12268,"Iron, IIIAB",85000.0,1961.0,39.263329999999996,31.78
462,Kediri,12270,L4,3300.0,1940.0,-7.75,112.01666999999999
463,Kemer,53654,L4,5760.0,2008.0,36.541940000000004,29.41822
464,Kendleton,12275,L4,6937.0,1939.0,29.45,-96.0
465,Kendrapara,12276,H4-5,6669.2,2003.0,20.4625,86.70278
466,Kerilis,12282,H5,5000.0,1874.0,48.4,-3.3
467,Kernouve,12284,H6,80000.0,1869.0,48.11667,-3.08333
468,Kesen,12286,H4,135000.0,1850.0,38.98333,141.61667
469,Khairpur,12288,EL6,13600.0,1873.0,29.53333,72.3
470,Khanpur,12289,LL5,3698.0,1932.0,25.55,83.11667
471,Kharkov,12291,L6,1500.0,1787.0,50.625,35.075
472,Kheragur,12294,L6,450.0,1860.0,26.95,77.88333
473,Khetri,12296,H6,100.0,1867.0,28.01667,75.81667
474,Khmelevka,12297,L5,6109.0,1929.0,56.75,75.33333
475,Khohar,12298,L3.6,9700.0,1910.0,25.1,81.53333
476,Khor Temiki,12299,Aubrite,3200.0,1932.0,16.0,36.0
477,Kidairat,12300,H6,100000.0,1983.0,14.0,28.0
478,Kiel,12301,L6,737.6,1962.0,54.4,10.15
479,Kiffa,12303,H5,1500.0,1970.0,16.58333,-11.33333
480,Kijima (1906),12305,Stone-uncl,331.0,1906.0,36.85,138.38333
481,Kikino,12306,H6,195.0,1809.0,55.0,34.0
482,Kilabo,12307,LL6,19000.0,2002.0,12.76667,9.8
483,Kilbourn,12308,H5,772.0,1911.0,43.58333,-89.6
484,Killeter,12309,H6,140.0,1844.0,54.666669999999996,-7.66667
487,Kisvarsány,12325,L6,1550.0,1914.0,48.16667,22.308329999999998
488,Kitchener,12326,L6,202.6,1998.0,43.38333,-80.38333
489,Klein-Wenden,12332,H6,3250.0,1843.0,51.6,10.8
490,Knyahinya,12335,L/LL5,500000.0,1866.0,48.9,22.4
491,Kobe,12336,CK4,136.0,1999.0,34.73333,135.16666999999998
492,Kokubunji,12342,L6,11510.0,1986.0,34.3,133.95
493,Komagome,12343,Iron,238.0,1926.0,35.73333,139.75
495,Košice,53810,H5,4300.0,2010.0,48.76367,21.17633
496,Krähenberg,12353,LL5,16500.0,1869.0,49.32694,7.46472
497,Krasnoi-Ugol,12355,L6,2440.0,1829.0,54.03333000000001,40.9
498,Krasnyi Klyuch,12357,H5,4000.0,1946.0,54.333330000000004,56.083330000000004
499,Krutikha,12363,OC,845.2,1906.0,56.8,77.0
500,Krymka,12364,LL3.2,50000.0,1946.0,47.83333,30.76667
501,Kukschin,12368,L6,2250.0,1938.0,51.15,31.7
502,Kulak,12369,L5,453.6,1961.0,30.731109999999997,66.80221999999999
503,Kuleschovka,12370,L6,6000.0,1811.0,50.75,33.5
504,Kulp,12373,H6,3719.0,1906.0,41.11667,45.0
505,Kunashak,12377,L6,200000.0,1949.0,55.78333000000001,61.36666999999999
506,Kunya-Urgench,12379,H5,1100000.0,1998.0,42.25,59.2
507,Kushiike,12381,OC,4460.0,1920.0,37.05,138.38333
510,Kuttippuram,12384,L6,45000.0,1914.0,10.83333,76.03333
511,Kuznetzovo,12385,L6,4047.0,1932.0,55.2,75.33333
512,Kyushu,12390,L6,45000.0,1886.0,32.03333,130.63333
513,La Bécasse,12392,L6,2800.0,1879.0,47.08333,1.75
514,La Charca,12394,OC,399.0,1878.0,20.66667,-101.28333
515,La Colina,12395,H5,2000.0,1924.0,-37.33333,-61.53333000000001
516,La Criolla,12396,L6,45000.0,1985.0,-31.23333,-58.166669999999996
517,Laborel,12408,H5,3833.0,1871.0,44.28333,5.58333
518,Lahrauli,12433,Ureilite,900.0,1955.0,26.78333,82.71667
519,L'Aigle,12434,L6,37000.0,1803.0,48.76667,0.6333300000000001
520,Lakangaon,12435,Eucrite-mmict,212.5,1910.0,21.866670000000003,76.03333
521,Lalitpur,12451,L6,372.0,1887.0,24.45,78.56667
522,Lancé,12455,CO3.5,51700.0,1872.0,47.7,1.06667
523,Lancon,12456,H6,7000.0,1897.0,43.75,5.11667
524,Långhalsen,12461,L6,2300.0,1947.0,58.85,16.73333
525,Lanxi,12464,L6,1282.0,1986.0,46.24167,126.19611
526,Lanzenkirchen,12465,L4,7000.0,1925.0,47.75,16.23333
527,Laochenzhen,12466,H5,14250.0,1987.0,33.13333,115.16667
528,Launton,12740,L6,1060.0,1830.0,51.9,-1.11667
529,Lavrentievka,12743,L6,800.0,1938.0,52.45,51.56667
530,Le Pressoir,12748,H5,3000.0,1845.0,47.16667,0.43333
531,Le Teilleul,12749,Howardite,780.0,1845.0,48.53333,-0.86667
532,Leedey,12755,L6,51500.0,1943.0,35.88333,-99.33333
533,Leeuwfontein,12756,L6,460.0,1912.0,-25.66667,28.366670000000003
534,Leighlinbridge,12759,L6,271.4,1999.0,52.666669999999996,-6.96667
535,Leighton,12760,H5,877.0,1907.0,34.58333,-87.5
536,Leonovka,12765,L6,700.0,1900.0,52.26667,32.85
537,Les Ormes,12769,L6,125.0,1857.0,48.35,3.25
538,Lesves,12772,L6,2000.0,1896.0,50.36667,4.7333300000000005
539,Lichtenberg,14646,H6,4000.0,1973.0,-26.15,26.183329999999998
540,Lillaverke,14650,H5,6862.0,1930.0,56.65,15.866670000000001
541,Limerick,14652,H5,50000.0,1813.0,52.566669999999995,-8.78333
542,Linum,14655,L6,1862.0,1854.0,52.75,12.9
543,Lishui,14659,L5,498.0,1978.0,31.633329999999997,118.98333000000001
544,Lissa,14661,L6,12800.0,1808.0,50.2,14.85
545,Little Piney,14664,L5,491.0,1839.0,37.91667,-92.08333
546,Lixna,14670,H4,5213.0,1820.0,56.0,26.433329999999998
547,Lodran,14675,Lodranite,1000.0,1868.0,29.53333,71.8
548,Lohawat,14678,Howardite,40000.0,1994.0,26.965559999999996,72.62666999999999
549,Lorton,52843,L6,329.7,2010.0,38.70066,-77.21163
551,Lost City,14711,H5,17000.0,1970.0,36.00833,-95.15
552,Louisville,14716,L6,1300.0,1977.0,38.25,-85.75
553,Łowicz,14718,Mesosiderite-A3,59000.0,1935.0,52.0,19.91667
554,Lua,14721,L5,9241.0,1926.0,24.95,75.15
555,Lucé,14724,L6,3500.0,1768.0,47.85,0.48333000000000004
556,Lumpkin,14753,L6,340.0,1869.0,32.03333,-84.76666999999999
557,Lunan,14754,H6,2520.0,1980.0,24.8,103.3
558,Lundsgård,14755,L6,11000.0,1889.0,56.21666999999999,13.03333
559,Luotolax,14756,Howardite,885.0,1813.0,61.2,27.7
560,Luponnas,14757,H3-5,14000.0,1753.0,46.21667,5.0
562,Mabwe-Khoywa,14764,L5,540.0,1937.0,19.0,97.0
563,Macau,15370,H5,1500.0,1836.0,-5.2,-36.66667
564,Machinga,15371,L6,93200.0,1981.0,-15.21222,35.24222
565,Macibini,15372,Eucrite-pmict,1995.0,1936.0,-28.83333,31.95
566,Madhipura,15379,L,1000.0,1950.0,25.91667,86.36667
567,Madiun,15380,L6,400.0,1935.0,-7.75,111.53333
568,Madrid,15382,L6,400.0,1896.0,40.41667,-3.7166699999999997
569,Mafra,15383,L3-4,600.0,1941.0,-26.16667,-49.93333
570,Magnesia,15386,"Iron, IAB-sHL",5000.0,1899.0,37.86667,27.51667
571,Magombedze,15387,H3-5,666.6,1990.0,-19.48333,31.65
572,Mahadevpur,47361,H4/5,70500.0,2007.0,27.66667,95.78333
573,Maigatari-Danduma,30751,H5/6,4629.0,2004.0,12.83333,9.38333
574,Malaga,15393,OC,150.0,1933.0,32.21667,-104.0
575,Malakal,15394,L5,2000.0,1970.0,9.5,31.75
576,Malampaka,15395,H,470.0,1930.0,-3.13333,33.51667
578,Malvern,15400,Eucrite-pmict,807.0,1933.0,-29.45,26.76667
579,Mamra Springs,15401,L6,1000.0,1927.0,45.21667,62.083330000000004
580,Manbhoom,15402,LL6,1700.0,1863.0,23.05,86.7
582,Mangwendi,15405,LL6,22300.0,1934.0,-17.65,31.6
583,Manych,15409,LL3.4,3555.0,1951.0,45.81667,44.63333
584,Mardan,15414,H5,4500.0,1948.0,34.23333,72.08333
586,Mariaville,15419,Iron,340.0,1898.0,42.71667,-99.38333
588,Maridi,15421,H6,3200.0,1941.0,4.66667,29.25
589,Marilia,15422,H4,2500.0,1971.0,-22.25,-49.93333
590,Marion (Iowa),15424,L6,28400.0,1847.0,41.9,-91.6
591,Marjalahti,15426,"Pallasite, PMG",45000.0,1902.0,61.5,30.5
592,Marmande,15429,L5,3000.0,1848.0,44.5,0.15
593,Maromandia,15430,L6,6000.0,2002.0,-14.2,48.1
594,Maryville,15436,L6,1443.0,1983.0,35.8,-84.1
595,Mascombes,15438,L6,1000.0,1836.0,45.36667,1.86667
597,Mässing,15443,Howardite,1600.0,1803.0,48.13333,12.61667
598,Mauerkirchen,15446,L6,19000.0,1768.0,48.18333,13.133329999999999
599,Mauritius,15447,L6,220.0,1801.0,-20.0,57.0
600,Mayo Belwa,15451,Aubrite,4850.0,1974.0,8.96667,12.08333
601,Mazapil,15453,"Iron, IAB-sLL",4000.0,1885.0,24.683329999999998,-101.68333
602,Maziba,15454,L6,4975.0,1942.0,-1.2166700000000001,30.0
603,Mbale,15455,L5/6,150000.0,1992.0,1.06667,34.16667
606,Meester-Cornelis,15470,H5,24750.0,1915.0,-6.2333300000000005,106.88333
607,Menow,15485,H4,10500.0,1862.0,53.183330000000005,13.15
609,Mern,15489,L6,4000.0,1878.0,55.05,12.06667
611,Merua,15492,H5,71400.0,1920.0,25.48333,81.98333000000001
612,Messina,15495,L5,2405.0,1955.0,38.18333,15.566670000000002
613,Meuselbach,16626,L6,870.0,1897.0,50.58333,11.1
614,Mezel,16627,L6,1300.0,1949.0,45.76667,3.25
615,Mezö-Madaras,16628,L3.7,22700.0,1852.0,46.5,25.73333
616,Mhow,16629,L6,350.0,1827.0,25.9,83.61667
617,Mianchi,16631,H5,1100.0,1980.0,34.8,111.7
618,Middlesbrough,16632,L6,1600.0,1881.0,54.566669999999995,-1.16667
619,Mifflin,52090,L5,3584.0,2010.0,42.9075,-90.36556
620,Mighei,16634,CM2,8000.0,1889.0,48.06667,30.96667
621,Mihonoseki,16635,L6,6380.0,1992.0,35.568329999999996,133.22
622,Mike,16636,L6,224.2,1944.0,46.23333,17.53333
623,Milena,16640,L6,10000.0,1842.0,46.18333,16.1
624,Millbillillie,16643,Eucrite-mmict,330000.0,1960.0,-26.45,120.36667
625,Miller (Arkansas),16645,H5,16700.0,1930.0,35.4,-92.05
626,Minamino,16692,L,1040.0,1632.0,35.07833,136.93333
628,Min-Fan-Zhun,16697,LL6,5500.0,1952.0,32.33333,120.66667
629,Minnichhof,16700,OC,550.0,1905.0,47.7,16.6
630,Mirzapur,16701,L5,8510.0,1910.0,25.683329999999998,83.25
631,Misshof,16703,H5,5800.0,1890.0,56.666669999999996,23.0
632,Mjelleim,16707,H,100.7,1898.0,61.73333,5.933330000000001
633,Mocs,16709,L5-6,300000.0,1882.0,46.8,24.03333
634,Modoc (1905),16711,L6,35000.0,1905.0,38.5,-101.1
635,Mokoia,16713,CV3,4500.0,1908.0,-39.63333,174.4
636,Molina,16715,H5,144000.0,1858.0,38.11667,-1.16667
637,Molteno,16717,Howardite,150.0,1953.0,-31.25,26.46667
638,Monahans (1998),16719,H5,2587.0,1998.0,31.60833,-102.85833000000001
639,Monroe,16720,H4,8600.0,1849.0,35.25,-80.5
640,Monte das Fortes,16725,L5,4885.0,1950.0,38.01667,-8.25
641,Monte Milone,16726,L5,3130.0,1846.0,43.26667,13.35
642,Montferré,16727,H5,149000.0,1923.0,43.39056,1.9625
643,Montlivault,16729,L6,500.0,1838.0,47.63333,1.58333
645,Moore County,16736,Eucrite-cm,1880.0,1913.0,35.41667,-79.38333
646,Mooresfort,16737,H5,3520.0,1810.0,52.45,-8.33333
647,Moorleah,16738,L6,8887.5,1930.0,-40.975,145.6
649,Morávka,16742,H5,633.0,2000.0,49.6,18.53333
650,Mornans,16747,H5,1300.0,1875.0,44.6,5.13333
651,Moss,36592,CO3.6,3763.0,2006.0,59.433330000000005,10.7
652,Moti-ka-nagla,16759,H6,1500.0,1868.0,26.83333,77.33333
653,Motta di Conti,16762,H4,9150.0,1868.0,45.2,8.5
654,Mount Browne,16766,H6,11300.0,1902.0,-29.8,141.7
655,Mount Tazerzait,16804,L5,110000.0,1991.0,18.7,4.8
656,Mount Vaisi,16805,Stone-uncl,17000.0,1637.0,44.08333,6.86667
657,Mtola,16820,Stone-uncl,1100.0,1944.0,-11.5,33.5
658,Muddoor,16841,L5,4400.0,1865.0,12.63333,77.01666999999999
660,Muraid,16874,L6,4703.0,1924.0,24.5,90.21667
661,Murchison,16875,CM2,100000.0,1969.0,-36.61667,145.2
662,Murray,16882,CM2,12600.0,1950.0,36.6,-88.1
663,Muzaffarpur,16885,"Iron, IAB-sHL",1245.0,1964.0,26.133329999999997,85.53333
665,Nadiabondi,16889,H5,8165.0,1956.0,12.0,1.0
666,Nagai,16890,L6,1810.0,1922.0,38.12167,140.06167
668,Nagy-Borové,16893,L5,6100.0,1895.0,49.16667,19.5
669,Nakhla,16898,Martian (nakhlite),10000.0,1911.0,31.316670000000002,30.35
670,Nakhon Pathom,16899,L6,23200.0,1923.0,13.733329999999999,100.08333
671,Nammianthal,16902,H5,4500.0,1886.0,12.28333,79.2
672,Nan Yang Pao,16903,L6,52900.0,1917.0,35.66667,103.5
673,Nanjemoy,16904,H6,7500.0,1825.0,38.41667,-77.16667
674,Nantong,16907,H6,529.0,1984.0,32.11667,121.8
675,Naoki,16908,H6,17000.0,1928.0,19.25,77.0
676,Naragh,16909,H6,2700.0,1974.0,33.75,51.5
677,Narellan,16912,L6,367.5,1928.0,-34.05,150.68889
679,Nassirah,16922,H4,347.0,1936.0,-21.73333,165.9
681,Nawapali,16927,CM2,105.0,1890.0,21.25,83.66667
682,Neagari,16934,L6,420.0,1995.0,36.44917,136.46528
683,Nedagolla,16935,"Iron, ungrouped",4500.0,1870.0,18.683329999999998,83.48333000000001
684,Nejo,16941,L6,2450.0,1970.0,9.5,35.33333
685,Nerft,16945,L6,10250.0,1864.0,56.5,21.5
686,Neuschwanstein,16950,EL6,6189.0,2002.0,47.525,10.80833
687,New Concord,16953,L6,230000.0,1860.0,40.0,-81.76666999999999
688,New Halfa,16954,L4,12000.0,1994.0,15.366670000000001,35.68333
689,New Orleans,16960,H5,19256.0,2003.0,29.94718,-90.10976
690,Ngawi,16966,LL3.6,1393.0,1883.0,-7.45,111.41667
691,N'Goureyma,16968,"Iron, ungrouped",37500.0,1900.0,13.85,-4.38333
695,Nikolaevka,16976,H4,3996.0,1935.0,52.45,78.63333
696,Nikolskoe,16977,L4,6000.0,1954.0,56.11666999999999,37.33333
697,Ningbo,16980,"Iron, IVA",14250.0,1975.0,29.866670000000003,121.48333000000001
698,Ningqiang,16981,C3-ung,4610.0,1983.0,32.925,105.90666999999999
699,Nio,16982,H3-4,467.0,1897.0,34.2,131.56667
700,N'Kandhla,16983,"Iron, IID",17200.0,1912.0,-28.566670000000002,30.7
701,Nobleborough,16984,Eucrite-pmict,2300.0,1823.0,44.08333,-69.48333000000001
702,Noblesville,16985,H4-6,483.7,1991.0,40.08528,-86.055
703,Nogata,16988,L6,472.0,860.0,33.725,130.75
704,Nogoya,16989,CM2,4000.0,1879.0,-32.36667,-59.833330000000004
705,Norfork,16994,"Iron, IIIAB",1050.0,1918.0,36.21667,-92.26666999999999
706,Norton County,17922,Aubrite,1100000.0,1948.0,39.68333,-99.86667
707,Noventa Vicentina,17930,H4,177.0,1971.0,45.29167,11.52722
708,Novo-Urei,17933,Ureilite,1900.0,1886.0,54.816669999999995,46.0
710,Novy-Projekt,17935,OC,1001.0,1908.0,56.0,22.0
711,Noyan-Bogdo,17936,L6,250.0,1933.0,42.91667,102.46667
712,Nuevo Mercurio,17938,H5,50000.0,1978.0,24.3,-102.13333
713,Nulles,17959,H6,5000.0,1851.0,41.63333,0.75
714,Numakai,17960,H4,363.0,1925.0,43.33333,141.86667
715,Nyaung,17969,"Iron, IIIAB",737.6,1939.0,21.20833,94.91667
716,Nyirábrany,17970,LL5,1100.0,1914.0,47.55,22.025
717,Ochansk,17979,H4,500000.0,1887.0,57.78333000000001,55.26667
718,Oesede,17988,H5,1400.0,1927.0,52.28333,8.05
719,Oesel,17989,L6,6000.0,1855.0,58.5,23.0
720,Ofehértó,17990,L6,3750.0,1900.0,47.88333,22.03333
721,Ogi,17994,H6,14360.0,1741.0,33.28333,130.2
722,Ohaba,17995,H5,16250.0,1857.0,46.06667,23.58333
723,Ohuma,17996,L5,7700.0,1963.0,6.75,8.5
724,Ojuelos Altos,17997,L6,5850.0,1926.0,38.18333,-5.4
725,Okabe,17998,H5,194.0,1958.0,36.18333,139.21667
726,Okano,18000,"Iron, IIAB",4742.0,1904.0,35.08333,135.2
727,Okniny,18002,LL6,12000.0,1834.0,50.83333,25.5
728,Oldenburg (1930),18009,L6,16570.0,1930.0,52.95,8.16667
730,Olivenza,18013,LL5,150000.0,1924.0,38.71667,-7.066669999999999
731,Olmedilla de Alarcón,18015,H5,40000.0,1929.0,39.56667,-2.1
732,Omolon,18019,"Pallasite, PMG",250000.0,1981.0,64.02,161.80833
733,Orgueil,18026,CI1,14000.0,1864.0,43.88333,1.38333
734,Orlando,34489,Eucrite,180.0,2004.0,28.5475,-81.36222
735,Ornans,18030,CO3.4,6000.0,1868.0,47.11667,6.15
736,Ortenau,18033,Stone-uncl,4500.0,1671.0,48.5,8.0
737,Orvinio,18034,H6,3400.0,1872.0,42.13333,12.93333
738,Oterøy,18042,L6,246.0,1928.0,58.88333000000001,9.4
739,Otomi,18045,H,6510.0,1867.0,38.4,140.35
740,Ottawa,18046,LL6,840.0,1896.0,38.6,-95.21667
741,Ouadangou,56729,L5,4440.0,2003.0,12.9,0.08
742,Oued el Hadjar,18050,LL6,1215.5,1986.0,30.18,-6.57717
743,Oum Dreyga,31282,H3-5,17000.0,2003.0,24.3,-13.1
744,Ourique,18052,H4,20000.0,1998.0,37.60833,-8.28
745,Ovambo,18055,L6,121.5,1900.0,-18.0,16.0
746,Oviedo,18058,H5,205.0,1856.0,43.4,-5.86667
748,Pacula,18068,L6,3400.0,1881.0,21.05,-99.3
749,Padvarninkai,18069,Eucrite-mmict,3858.0,1929.0,55.666669999999996,25.0
750,Paitan,18072,H6,515.0,1910.0,17.74333,120.45583
752,Palca de Aparzo,18074,L5,1430.0,1988.0,-23.116670000000003,-65.1
753,Palinshih,18077,Iron,18000.0,1914.0,43.48333,118.61667
754,Palmyra,18079,L3,135.0,1926.0,39.8,-91.5
755,Palolo Valley,18082,H5,682.0,1949.0,21.3,-157.78333
756,Pampanga,18093,L5,10500.0,1859.0,15.083329999999998,120.7
757,Pantar,18098,H5,2130.0,1938.0,8.06667,124.28333
758,Paragould,18101,LL5,408000.0,1930.0,36.06667,-90.5
759,Parambu,18102,LL5,2000.0,1967.0,-6.2333300000000005,-40.7
760,Paranaiba,18103,L6,100000.0,1956.0,-19.133329999999997,-51.66667
761,Park Forest,18106,L5,18000.0,2003.0,41.48472,-87.67917
762,Parnallee,18108,LL3.6,77600.0,1857.0,9.23333,78.35
763,Parsa,18109,EH3,800.0,1942.0,26.2,85.4
764,Pasamonte,18110,Eucrite-pmict,5100.0,1933.0,36.21667,-103.4
765,Patora,18112,H6,4375.0,1969.0,20.93694,82.05
766,Patrimonio,18116,L6,2121.0,1950.0,-19.53333,-48.56667
768,Patwar,18171,Mesosiderite-A1,37350.0,1935.0,23.15,91.18333
769,Pavel,18173,H5,2968.0,1966.0,43.46667,25.51667
770,Pavlodar (stone),18175,H5,142.5,1938.0,52.3,77.03333
771,Pavlograd,18176,L6,40000.0,1826.0,48.53333,35.98333
772,Pavlovka,18177,Howardite,2000.0,1882.0,52.03333,43.0
774,Peace River,18180,L6,45760.0,1963.0,56.13333000000001,-117.93333
775,Peckelsheim,18181,Diogenite-pm,117.8,1953.0,51.66667,9.25
776,Peekskill,18782,H6,12570.0,1992.0,41.28333,-73.91667
777,Peña Blanca Spring,18786,Aubrite,70000.0,1946.0,30.125,-103.11667
778,Peramiho,18792,Eucrite-mmict,165.0,1899.0,-10.66667,35.5
779,Perpeti,18793,L6,23474.0,1935.0,23.325,91.0
781,Pervomaisky,18798,L6,66000.0,1933.0,56.63333000000001,39.43333
782,Pesyanoe,18799,Aubrite,3393.0,1933.0,55.5,66.08333
783,Pétèlkolé,18800,H5,189.0,1995.0,14.052,0.42
784,Petersburg,18801,Eucrite-pmict,1800.0,1855.0,35.3,-86.63333
786,Phillips County (stone),18808,L6,57900.0,1901.0,40.0,-99.25
787,Phu Hong,18809,H4,500.0,1887.0,11.25,108.58333
788,Phum Sambo,18811,H4,7800.0,1933.0,12.0,105.48333000000001
789,Phuoc-Binh,18812,L5,11000.0,1941.0,15.71667,108.1
792,Pillistfer,18822,EL6,23250.0,1863.0,58.666669999999996,25.73333
793,Piplia Kalan,18831,Eucrite-mmict,42000.0,1996.0,26.03472,73.94167
795,Pirgunje,18834,L6,842.0,1882.0,25.8,88.45
796,Pirthalla,18835,H6,1161.0,1884.0,29.58333,76.0
797,Pitts,18837,"Iron, IAB-ung",3760.0,1921.0,31.95,-83.51666999999999
798,Plantersville,18846,H6,2085.0,1930.0,30.7,-96.11667
799,Pleşcoi,51706,L5-6,6913.0,2008.0,45.275,26.70972
802,Pohlitz,18853,L5,3000.0,1819.0,50.93333,12.13333
803,Pokhra,18858,H5,350.0,1866.0,26.71667,82.66667
804,Pollen,18860,CM2,253.6,1942.0,66.34833,14.015
805,Pontlyfni,18865,Winonaite,157.0,1931.0,53.036390000000004,-4.31944
806,Portales Valley,18874,H6,71400.0,1998.0,34.175,-103.295
807,Portugal,18876,Stone-uncl,4500.0,1796.0,38.5,-8.0
808,Po-wang Chen,18879,LL,665.0,1933.0,31.41667,118.5
809,Prambachkirchen,18883,L6,2125.0,1932.0,48.3025,13.940829999999998
810,Pribram,18887,H5,5555.0,1959.0,49.66667,14.03333
811,Pricetown,18888,L6,900.0,1893.0,39.11667,-83.85
812,Puerto Lápice,45984,Eucrite-br,500.0,2007.0,39.35,-3.5166699999999995
813,Pulsora,18899,H5,560.0,1863.0,23.366670000000003,75.18333
814,Pultusk,18901,H5,250000.0,1868.0,52.76667,21.26667
815,Punganaru,18902,Stone-uncl,100.0,1811.0,13.333329999999998,78.95
816,Putinga,18905,L6,300000.0,1937.0,-29.03333,-53.05
817,Qidong,18907,L/LL5,1275.0,1982.0,32.08333,121.5
818,Qingzhen,18908,EH3,2600.0,1976.0,26.53333,106.46667
819,Queen's Mercy,22357,H6,7000.0,1925.0,-30.116670000000003,28.7
820,Quenggouk,22358,H4,6045.0,1857.0,17.76667,95.18333
821,Quesa,22360,"Iron, IAB-ung",10750.0,1898.0,39.0,-0.66667
822,Quija,22361,H,17450.0,1990.0,44.61667,126.13333
824,Raco,22368,H5,5000.0,1957.0,-26.66667,-65.45
825,Raghunathpura,22371,"Iron, IIAB",10200.0,1986.0,27.725279999999998,76.465
826,Rahimyar Khan,31302,L5,67225.0,1983.0,28.225,70.2
827,Rakovka,22376,L6,9000.0,1878.0,52.98333,37.03333
828,Ramnagar,22384,L6,3766.0,1940.0,26.45,82.9
829,Rampurhat,22385,LL,100.0,1916.0,24.16667,87.76666999999999
830,Ramsdorf,22386,L6,4682.0,1958.0,51.88333,6.933330000000001
831,Ranchapur,22387,H4,290.4,1917.0,23.98333,87.08333
832,Rancho de la Presa,22390,H5,300.0,1899.0,19.866670000000003,-100.81667
833,Rangala,22392,L6,3224.5,1937.0,25.383329999999997,72.01666999999999
834,Raoyang,22394,L6,4910.0,1919.0,38.2,115.7
836,Rasgrad,22396,Stone-uncl,24700.0,1740.0,43.5,26.53333
837,Ratyn,22398,Stone-uncl,910.0,1880.0,52.2,17.98333
839,Reliegos,22584,L5,17300.0,1947.0,42.475,-5.33333
840,Rembang,22585,"Iron, IVA",10000.0,1919.0,-6.7333300000000005,111.36667
841,Renazzo,22586,CR2,1000.0,1824.0,44.76667,11.28333
842,Renca,22587,L5,300.0,1925.0,-32.75,-65.28333
843,Renqiu,22589,L6,355.0,1916.0,38.66667,116.13333
844,Repeev Khutor,22590,"Iron, IIF",7000.0,1933.0,48.6,45.66667
846,Rewari,22593,L6,3332.0,1929.0,28.2,76.66667
847,Rich Mountain,22597,L6,668.0,1903.0,35.03333,-83.03333
848,Richardton,22599,H5,90000.0,1918.0,46.88333,-102.31667
849,Richland Springs,22602,OC,1900.0,1980.0,31.25,-99.03333
850,Richmond,22603,LL5,1800.0,1828.0,37.46667,-77.5
851,Rio Negro,22611,L4,1310.0,1934.0,-26.1,-49.8
852,Rivolta de Bassi,22614,Stone-uncl,103.3,1490.0,45.48333,9.51667
853,Rochester,22637,H6,340.0,1876.0,41.08333,-86.28333
854,Rockhampton,22640,Stone-uncl,1641.0,1895.0,-23.383329999999997,150.51667
855,Roda,22641,Diogenite,400.0,1871.0,42.3,0.55
856,Rodach,22642,Stone-uncl,2900.0,1775.0,50.35,10.8
857,Rose City,22766,H5,10600.0,1921.0,44.51667,-83.95
858,Rowton,22773,"Iron, IIIAB",3500.0,1876.0,52.76667,-2.51667
859,Ruhobobo,22780,L6,465.5,1976.0,-1.45,29.83333
861,Rupota,22783,L4-6,6000.0,1949.0,-10.26667,38.76667
862,Ryechki,22791,L5,13000.0,1914.0,51.13333,34.5
863,Sabetmahet,22792,H5,1250.0,1855.0,27.433329999999998,82.08333
864,Sabrum,22793,LL6,478.0,1999.0,23.08333,91.66667
866,Saint-Sauveur,23101,EH5,14000.0,1914.0,43.73333,1.38333
867,Saint-Séverin,23102,LL6,271000.0,1966.0,45.3,0.23333
868,Sakauchi,23103,Iron,4180.0,1913.0,35.66667,136.3
870,Salles,23111,L5,9000.0,1798.0,46.05,4.63333
872,Samelia,23115,"Iron, IIIAB",2462.0,1921.0,25.66667,74.86667
874,San Michele,31315,L6,237.0,2002.0,43.66667,13.0
875,San Pedro de Quiles,23130,L6,282.0,1956.0,-31.01667,-71.4
876,San Pedro Jacuaro,34063,LL6,460.0,1968.0,19.76667,-100.65
877,Santa Barbara,23161,L4,400.0,1873.0,-29.2,-51.86667
879,Santa Isabel,23165,L6,5500.0,1924.0,-33.9,-61.7
880,Santa Lucia (2008),50909,L6,4000.0,2008.0,-31.535556,-68.48944399999999
881,São Jose do Rio Preto,23171,H4,927.0,1962.0,-20.81,-49.380559999999996
882,Saratov,23176,L4,200000.0,1918.0,52.55,46.55
883,Sasagase,23187,H,695.0,1688.0,34.71667,137.78333
884,Sauguis,23188,L6,4000.0,1868.0,43.15,-0.85
885,Savtschenskoje,23190,LL4,2500.0,1894.0,47.21667,29.866670000000003
886,Sayama,23192,CM2,430.0,1986.0,35.86667,139.4
887,Sazovice,23455,L5,412.0,1934.0,49.23333,17.566670000000002
888,Schellin,23457,L,7000.0,1715.0,53.35,15.05
889,Schenectady,23458,H5,283.3,1968.0,42.86083,-73.95028
890,Schönenberg,23460,L6,8000.0,1846.0,48.11667,10.46667
891,Searsmont,23472,H5,5400.0,1871.0,44.36667,-69.2
892,Sediköy,23473,L6,240.0,1917.0,38.3,27.133329999999997
893,Segowlie,23476,LL6,6930.0,1853.0,26.75,84.78333
894,Selakopi,23481,H5,1590.0,1939.0,-7.2333300000000005,107.33333
895,Seldebourak,23483,H5,150.0,1947.0,22.83333,4.9833300000000005
896,Semarkona,23487,LL3.00,691.0,1940.0,22.25,79.0
897,Sena,23495,H4,4000.0,1773.0,41.71667,-0.05
898,Senboku,23496,H6,866.0,1993.0,39.43833,140.51167
899,Seoni,23500,H6,20000.0,1966.0,21.683889999999998,79.50083000000001
900,Seres,23501,H4,8500.0,1818.0,41.05,23.566670000000002
901,Serra de Magé,23502,Eucrite-cm,1800.0,1923.0,-8.38333,-36.76667
902,Sete Lagoas,23504,H4,350.0,1908.0,-19.46667,-44.21667
903,Sevilla,23508,LL4,180.0,1862.0,37.41667,-6.0
904,Sevrukovo,23509,L5,101000.0,1874.0,50.61667,36.6
905,Sfax,23512,L6,7000.0,1989.0,34.75,10.71667
906,Shalka,23521,Diogenite,4000.0,1850.0,23.1,87.3
907,Sharps,23525,H3.4,1265.0,1921.0,37.83333,-76.7
908,Shelburne,23529,L5,18600.0,1904.0,44.05,-80.16667
909,Shergotty,23530,Martian (shergottite),5000.0,1865.0,24.55,84.83333
910,Sheyang,23531,L6,605.0,1976.0,33.65,120.06667
911,Shikarpur,23534,L6,3679.7,1921.0,25.85,87.5775
912,Shuangyang,23582,H5,3900.0,1971.0,43.5,125.66667
913,Shupiyan,23583,H6,5000.0,1912.0,33.71667,74.83333
914,Shytal,23584,L6,3200.0,1863.0,24.33333,90.16667
915,Siena,23586,LL5,3700.0,1794.0,43.11667,11.6
916,Sikhote-Alin,23593,"Iron, IIAB",23000000.0,1947.0,46.16,134.65333
917,Silao,23594,H5,1710.0,1995.0,20.933329999999998,-101.38333
919,Simmern,23603,H5,1222.0,1920.0,49.98333,7.53333
920,Sinai,23606,L6,1455.0,1916.0,30.9,32.48333
921,Sindhri,23611,H5,8400.0,1901.0,26.21667,69.55
922,Sinnai,23613,H6,2000.0,1956.0,39.3,9.2
923,Sioux County,23614,Eucrite-mmict,4100.0,1933.0,42.58333,-103.66667
924,Sitathali,23616,H5,1600.0,1875.0,20.91667,82.58333
925,Sivas,23617,H6,40000.0,1989.0,39.824670000000005,36.13583
926,Sixiangkou,23619,L5,630.0,1989.0,32.43333,119.86667
927,Ski,23621,L6,850.0,1848.0,59.73333,10.86667
928,Slavetic,23626,H5,1708.0,1868.0,45.68333,15.6
929,Slobodka,23645,L4,2750.0,1818.0,55.0,35.0
931,Soko-Banja,23661,LL4,80000.0,1877.0,43.66667,21.866670000000003
933,Sołtmany,53829,L6,1066.0,2011.0,54.00883,22.005
934,Sone,23667,H5,17100.0,1866.0,35.16667,135.33333000000002
935,Songyuan,23668,L6,36900.0,1993.0,45.25,125.0
936,Sopot,23670,OC,958.0,1927.0,44.41667,23.5
937,Soroti,23671,"Iron, ungrouped",2050.0,1945.0,1.7,33.63333
938,St. Caprais-de-Quinsac,23081,L6,360.0,1883.0,44.75,0.05
939,St. Christophe-la-Chartreuse,23082,L6,5500.0,1841.0,46.95,-1.5
940,St. Denis Westrem,23083,L6,700.0,1855.0,51.05,3.75
941,St. Germain-du-Pinel,23087,H6,4000.0,1890.0,48.01667,-1.15
942,St. Louis,23089,H4,1000.0,1950.0,38.7,-90.23333000000001
943,St. Mark's,23090,EH5,13780.0,1903.0,-32.01667,27.41667
945,St. Mesmin,23092,LL6,8300.0,1866.0,48.45,3.93333
946,St. Michel,23093,L6,17000.0,1910.0,61.65,27.2
947,St.-Chinian,23097,L6,134.3,1959.0,43.43333,2.95
948,Ställdalen,23712,H5,34000.0,1876.0,59.933330000000005,14.95
949,Stannern,23713,Eucrite-mmict,52000.0,1808.0,49.28333,15.566670000000002
950,Stavropol,23717,L6,1500.0,1857.0,45.05,41.98333
951,Ste. Marguerite,23099,H4,4960.0,1962.0,50.76667,3.0
952,Sterlitamak,23724,"Iron, IIIAB",325000.0,1990.0,53.666669999999996,55.98333
955,Strathmore,23729,L6,13400.0,1917.0,56.583330000000004,-3.25
956,Stretchleigh,23732,Stone-uncl,10400.0,1623.0,50.38333,-3.95
957,St-Robert,23733,H5,25400.0,1994.0,45.96861,-72.97806
958,Success,23736,L6,3500.0,1924.0,36.48333,-90.66667
959,Suchy Dul,23737,L6,815.3,1969.0,50.538059999999994,16.26333
960,Suizhou,23738,L6,260000.0,1986.0,31.616670000000003,113.46667
961,Sulagiri,48951,LL6,110000.0,2008.0,12.66667,78.03333
962,Sultanpur,23741,L/LL6,1710.5,1916.0,25.933329999999998,84.28333
963,Sungach,23745,H5,637.0,1935.0,44.86667,133.16666999999998
964,Supuhee,23760,H6,7235.0,1865.0,26.71667,84.21667
965,Sutter's Mill,55529,C,992.5,2012.0,38.80389,-120.90806
966,Sylacauga,23773,H4,5560.0,1954.0,33.188359999999996,-86.2945
967,Tabor,23776,H5,7540.0,1753.0,49.4,14.65
968,Tadjera,23778,L5,9000.0,1867.0,36.18333,5.41667
969,Tagish Lake,23782,C2-ung,10000.0,2000.0,59.704440000000005,-134.20139
970,Tahara,23784,H4/5,1000.0,1991.0,34.72,137.305
971,Takenouchi,23789,H5,720.0,1880.0,35.38333,134.9
973,Tambakwatu,23795,L6,10500.0,1975.0,-7.75,112.76666999999999
974,Tamdakht,48691,H5,100000.0,2008.0,31.16333,-7.015
975,Tané,23801,L5,905.0,1918.0,35.43333,136.23333
976,Taonan,23873,L5,3850.0,1965.0,45.4,122.9
977,Tatahouine,23884,Diogenite,12000.0,1931.0,32.95,10.41667
978,Tathlith,23885,L6,2500.0,1967.0,19.383329999999997,43.73333
979,Tauk,23887,L6,6000.0,1929.0,35.13333,44.45
980,Tauti,23888,L6,21000.0,1937.0,46.71667,23.5
981,Tenham,23897,L6,160000.0,1879.0,-25.73333,142.95
982,Tennasilm,23898,L4,28500.0,1872.0,58.03333000000001,26.95
983,Thal,23908,H6,342.0,1950.0,33.4,70.6
984,Thika,54493,L6,14200.0,2011.0,-1.00278,37.15028
985,Thuathe,23976,H4/5,45300.0,2002.0,-29.33333,27.58333
986,Tianzhang,23984,H5,2232.0,1986.0,32.946670000000005,118.99
987,Tieschitz,23989,H/L3.6,28000.0,1878.0,49.6,17.116670000000003
988,Tilden,23998,L6,74800.0,1927.0,38.2,-89.68333
989,Tillaberi,23999,L6,3000.0,1970.0,14.25,1.5333299999999999
990,Timochin,24004,H5,65500.0,1807.0,54.5,35.2
991,Tirupati,24009,H6,230.0,1934.0,13.633329999999999,79.41667
992,Tissint,54823,Martian (shergottite),7000.0,2011.0,29.48195,-7.61123
993,Tjabe,24011,H6,20000.0,1869.0,-7.08333,111.53333
994,Tjerebon,24012,L5,16500.0,1922.0,-6.66667,106.58333
995,Tomakovka,24019,LL6,600.0,1905.0,47.85,34.76667
996,Tomatlan,24020,H6,900.0,1879.0,20.16667,-105.21667
997,Tomita,24023,L,600.0,1916.0,34.5,133.75
1000,Torino,24029,H6,977.0,1988.0,45.06667,7.66667
1001,Torrington,24032,H6,259.1,1944.0,42.06667,-104.16667
1002,Toulouse,24036,H6,1030.0,1812.0,43.6,1.4
1003,Tounkin,24037,OC,2000.0,1824.0,51.73333,102.53333
1004,Tourinnes-la-Grosse,24038,L6,14500.0,1863.0,50.78333,4.7666699999999995
1005,Trebbin,24042,LL6,1250.0,1988.0,52.21667,13.166670000000002
1006,Trenzano,24046,H3/4,11800.0,1856.0,45.46667,10.0
1007,Treysa,24050,"Iron, IIIAB-an",63000.0,1916.0,50.91667,9.18333
1008,Tromøy,24053,H,357.4,1950.0,58.473330000000004,8.86667
1009,Troup,24054,L6,1020.0,1917.0,32.16667,-95.1
1010,Trysil,24057,L/LL6,640.0,1927.0,61.3,12.3
1011,Tsukuba,24059,H5-6,800.0,1996.0,36.06333,140.145
1012,Tuan Tuc,24060,L6,13100.0,1921.0,9.66667,105.66667
1013,Tugalin-Bulen,24062,H6,10000.0,1967.0,45.46667,105.38333
1016,Tuxtuac,24086,LL5,30000.0,1975.0,21.66667,-103.36667
1017,Tysnes Island,24094,H4,19860.0,1884.0,60.0,5.61667
1018,Tyumen,24095,Iron,750.0,1903.0,57.166669999999996,65.53333
1019,Uberaba,24096,H5,40000.0,1903.0,-19.816670000000002,-48.78333
1020,Ucera,24097,H5,4590.0,1970.0,11.05,-69.85
1021,Uchkuduk,24098,L6,1000.0,1989.0,41.76667,62.51667
1023,Udei Station,24101,"Iron, IAB-ung",103000.0,1927.0,7.95,8.08333
1024,Uden,24103,LL7,710.0,1840.0,51.65,5.61667
1025,Udipi,24104,H5,3600.0,1866.0,13.483329999999999,74.78333
1026,Ufana,24106,EL6,189.2,1957.0,-4.2666699999999995,35.35
1028,Umbala,24112,LL5,100.0,1822.0,30.33333,76.33333
1029,Umm Ruaba,24118,L5,1700.0,1966.0,13.46667,31.21667
1030,Undulung,24121,L4,113.4,1986.0,66.13889,124.76666999999999
1031,Unkoku,24123,OC,1000.0,1924.0,34.8,127.0
1032,Urasaki,24129,Stone-uncl,1500.0,1926.0,34.48333,133.28333
1033,Usti Nad Orlici,24132,L6,1269.0,1963.0,49.975,16.375
1034,Utrecht,24135,L6,9700.0,1843.0,52.11667,5.183330000000001
1035,Utzenstorf,24136,H5,3422.0,1928.0,47.11667,7.55
1036,Uzcudun,24140,L,20000.0,1948.0,-44.11667,-66.15
1038,Valdavur,24144,H6,2799.0,1944.0,11.98333,79.75
1039,Valdinizza,24145,L6,1004.0,1903.0,44.86667,9.15
1041,Valera,24149,L5,50000.0,1972.0,9.31667,-70.62833
1042,Varre-Sai,53633,L5,2500.0,2010.0,-20.85001,-41.73356
1043,Vavilovka,24154,LL6,1932.0,1876.0,46.15,32.83333
1044,Vengerovo,24158,H5,10800.0,1950.0,56.13333000000001,77.26666999999999
1045,Veramin,24162,Mesosiderite-B2,54000.0,1880.0,35.33333,51.63333
1046,Verkhne Tschirskaia,24165,H5,8000.0,1843.0,48.41667,43.2
1047,Vernon County,24168,H6,1500.0,1865.0,43.5,-91.16667
1048,Vetluga,24169,Eucrite-mmict,750.0,1949.0,57.8,45.8
1049,Vigarano,24174,CV3,15000.0,1910.0,44.85,11.4
1050,Villalbeto de la Peña,24179,L6,3500.0,2004.0,42.8,-4.66667
1053,Virba,24185,L6,3600.0,1873.0,43.53333,22.633329999999997
1054,Vishnupur,24187,LL4-6,2437.0,1906.0,23.1,87.43333
1055,Vissannapeta,24188,Eucrite-cm,1303.8,1997.0,16.83333,80.75
1056,Visuni,24189,H6,594.0,1915.0,25.45,70.0
1057,Vouillé,24191,L6,20000.0,1831.0,46.63333,0.16667
1058,Walters,24210,L6,28100.0,1946.0,34.33333,-98.3
1059,Warrenton,24215,CO3.7,1600.0,1877.0,38.68333,-91.15
1060,Washougal,24218,Howardite,225.0,1939.0,45.58333,-122.35
1061,Werdama,47344,H5,4000.0,2006.0,32.79732,21.787129999999998
1062,Wessely,24244,H5,3750.0,1831.0,48.95,17.383329999999997
1063,Weston,24249,H4,150000.0,1807.0,41.266667,-73.266667
1064,Wethersfield (1971),24250,L6,350.0,1971.0,41.7,-72.65
1065,Wethersfield (1982),24251,L6,2756.0,1982.0,41.71056,-72.67361
1066,Whetstone Mountains,49514,H5,2138.74,2009.0,31.96185,-110.434183
1067,Wiluna,24281,H5,150000.0,1967.0,-26.592779999999998,120.32833000000001
1070,Wittekrantz,24323,L5,2200.0,1880.0,-32.5,23.0
1071,Wolamo,24324,OC,166.4,1964.0,9.0,39.0
1072,Wold Cottage,24325,L6,25000.0,1795.0,54.136669999999995,-0.41333000000000003
1073,Woolgorong,24334,L6,36000.0,1960.0,-27.75,115.83333
1074,Worden,24337,L5,1551.0,1997.0,42.38467,-83.6115
1075,Wuan,24340,H6,50000.0,1986.0,36.75,114.25
1077,Xi Ujimgin,24345,L/LL6-an,5900.0,1980.0,44.66667,117.5
1078,Xingyang,24346,H6,75500.0,1977.0,32.33333,114.31667
1079,Yafa,24351,H5,5700.0,2000.0,13.711110000000001,45.17
1081,Yangchiang,30348,H5,20000.0,1954.0,21.83333,111.83333
1082,Yanzhuang,30350,H6,3500.0,1990.0,24.566670000000002,114.16667
1083,Yardymly,30352,"Iron, IAB complex",150200.0,1959.0,38.93333,48.25
1084,Yatoor,30358,H5,13600.0,1852.0,14.3,79.76666999999999
1085,Yonozu,30366,H4/5,31650.0,1837.0,37.75,139.0
1086,Yorktown (New York),30370,L5,250.0,1869.0,41.28333,-73.81667
1088,Yukan,30377,LL6,4800.0,1931.0,28.71667,116.61667
1089,Yurtuk,30378,Howardite,1472.0,1936.0,47.31667,35.36667
1090,Zaborzika,30379,L6,3867.0,1818.0,50.28333,27.683329999999998
1091,Zabrodje,30380,L6,3000.0,1893.0,55.183330000000005,27.91667
1092,Zag,30384,H3-6,175000.0,1998.0,27.33333,-9.33333
1093,Zagami,30386,Martian (shergottite),18000.0,1962.0,11.73333,7.08333
1094,Zaisan,30388,H5,463.0,1963.0,47.5,83.0
1095,Zaisho,30389,"Pallasite, PMG-an",330.0,1898.0,33.7,133.8
1096,Zaoyang,30391,H5,14250.0,1984.0,32.3,112.75
1097,Zavetnoe,30395,L6,800.0,1952.0,47.13333,43.9
1098,Zavid,30396,L6,95000.0,1897.0,44.4,19.116670000000003
1099,Zebrak,30397,H5,2000.0,1824.0,49.88333,13.916670000000002
1100,Zemaitkiemis,30399,L6,44100.0,1933.0,55.3,25.0
1101,Zhaodong,30404,L4,42000.0,1984.0,45.81667,125.91667
1102,Zhovtnevyi,30407,H6,107000.0,1938.0,47.58333,37.25
1103,Zhuanghe,30408,H5,2900.0,1976.0,39.66667,122.98333000000001
1104,Zmenj,30411,Howardite,246.0,1858.0,51.83333,26.83333
1105,Zomba,30412,L6,7500.0,1899.0,-15.183329999999998,35.28333
1106,Zsadany,30413,H5,552.0,1875.0,46.93333,21.5
1107,Zvonkov,30415,H6,2568.0,1955.0,50.2,30.25
1108,Abajo,4,H5,331.0,1982.0,26.8,-105.41667
1109,Abar al' Uj 001,51399,H3.8,194.34,2008.0,22.72192,48.95937
1110,Abbott,5,H3-6,21100.0,1951.0,36.3,-104.28333
1111,Abernathy,7,L6,2914.0,1941.0,33.85,-101.8
1113,Abu Moharek,9,H4,4500.0,1997.0,27.239440000000002,29.835829999999998
1114,Acfer 001,11,L6,6700.0,1989.0,27.5,3.6166699999999996
1115,Acfer 002,12,H5,228.0,1989.0,27.616670000000003,3.85
1116,Acfer 003,13,H5,145.0,1989.0,27.816670000000002,4.03333
1117,Acfer 004,14,L6,1020.0,1989.0,27.58333,3.81667
1118,Acfer 005,15,H3.9/4,115.0,1989.0,27.6,3.83333
1119,Acfer 006,16,H3.9/4,561.0,1989.0,27.633329999999997,3.9666699999999997
1120,Acfer 007,17,L5,542.0,1989.0,27.51667,3.65
1121,Acfer 008,18,H5,205.0,1989.0,27.53333,3.7
1122,Acfer 009,19,L6,127.0,1989.0,27.73333,4.08333
1123,Acfer 010,20,L6,276.0,1989.0,27.75,4.1
1124,Acfer 011,21,H5,3800.0,1989.0,27.75,4.16667
1126,Acfer 013,23,H5,490.0,1989.0,27.83333,4.28333
1127,Acfer 014,24,H5,307.0,1989.0,27.8,4.46667
1129,Acfer 016,26,H4-5,111.0,1989.0,27.71667,4.4833300000000005
1130,Acfer 017,27,L5,446.0,1989.0,27.73333,4.4
1131,Acfer 018,28,H5,207.0,1989.0,27.7,4.08333
1132,Acfer 019,29,L6,581.0,1989.0,27.7,4.066669999999999
1133,Acfer 020,30,H5,708.0,1989.0,27.7,4.066669999999999
1134,Acfer 021,31,H6,2140.0,1989.0,27.55,3.6166699999999996
1135,Acfer 022,32,H3.7,192.0,1989.0,27.51667,3.83333
1136,Acfer 023,33,H3.8,118.0,1989.0,27.51667,3.91667
1137,Acfer 024,34,H5,1464.0,1989.0,27.55,3.93333
1138,Acfer 025,35,H5,920.0,1989.0,27.58333,3.9666699999999997
1140,Acfer 027,37,H5,206.0,1989.0,27.66667,4.2
1141,Acfer 028,38,H3.8,3130.0,1989.0,27.66667,4.25
1143,Acfer 030,40,LL6,123.0,1989.0,27.683329999999998,4.41667
1144,Acfer 031,41,H5,2016.0,1989.0,27.66667,4.35
1145,Acfer 032,42,L6,495.0,1989.0,27.65,4.46667
1147,Acfer 034,44,L6,184.0,1989.0,27.633329999999997,4.35
1149,Acfer 036,46,L5/6,112.0,1989.0,27.58333,4.25
1150,Acfer 037,47,LL4-6,385.0,1989.0,27.55,4.13333
1151,Acfer 038,48,H5,962.0,1989.0,27.53333,4.0
1152,Acfer 039,49,L3.8,225.0,1989.0,27.53333,3.91667
1153,Acfer 040,50,L5-6,146.0,1989.0,27.46667,3.7833300000000003
1154,Acfer 041,51,L/LL6,134.0,1989.0,27.433329999999998,3.7166699999999997
1155,Acfer 042,52,H5,246.0,1989.0,27.46667,3.83333
1156,Acfer 043,53,H4,120.0,1989.0,27.51667,3.91667
1157,Acfer 044,54,L6,195.0,1989.0,27.55,4.0
1158,Acfer 046,56,H5,1066.0,1989.0,27.78333,4.7
1159,Acfer 047,57,L4,1440.0,1989.0,27.83333,4.7
1160,Acfer 048,58,H4-5,115.0,1989.0,27.55,4.08333
1162,Acfer 050,60,H6,1394.0,1989.0,27.65,4.5
1163,Acfer 051,61,L5,905.0,1989.0,27.616670000000003,4.41667
1165,Acfer 053,63,H6,1937.0,1989.0,27.73333,4.05
1166,Acfer 054,64,H5,2051.0,1989.0,27.7,3.93333
1167,Acfer 055,65,H5,1338.0,1989.0,27.5,3.9833300000000005
1168,Acfer 056,66,L4,129.0,1989.0,27.46667,3.8833300000000004
1169,Acfer 058,67,LL5-6,277.0,1989.0,27.383329999999997,3.7166699999999997
1170,Acfer 059,68,CR2,281.0,1989.0,27.51667,4.066669999999999
1171,Acfer 060,69,H4,226.0,1989.0,27.566670000000002,4.16667
1172,Acfer 061,70,H4-5,105.0,1989.0,27.6,4.25
1173,Acfer 062,71,H5,283.0,1989.0,27.6,4.41667
1174,Acfer 063,72,Mesosiderite,716.0,1989.0,27.616670000000003,4.566669999999999
1175,Acfer 064,73,L5,854.0,1989.0,27.616670000000003,4.566669999999999
1176,Acfer 065,74,H4-5,1539.0,1989.0,27.5,4.28333
1177,Acfer 066,75,LL3.8-6,517.0,1990.0,27.633329999999997,4.066669999999999
1178,Acfer 067,76,H5,383.0,1990.0,27.71667,4.78333
1179,Acfer 068,77,L6,1805.0,1990.0,27.55,3.7
1180,Acfer 069,78,L6,941.0,1990.0,27.53333,3.83333
1181,Acfer 070,79,H4/5,138.0,1990.0,27.683329999999998,4.4833300000000005
1182,Acfer 071,80,L6,1379.0,1990.0,27.633329999999997,4.28333
1183,Acfer 072,81,L5/6,162.0,1990.0,27.633329999999997,4.25
1184,Acfer 073,82,H5,2010.0,1990.0,27.53333,3.85
1185,Acfer 074,83,L6,384.0,1990.0,27.48333,3.83333
1186,Acfer 075,84,H5,1453.0,1990.0,27.51667,3.7333300000000005
1187,Acfer 076,85,H5,183.0,1990.0,27.7,4.35
1188,Acfer 077,86,L6,2538.0,1990.0,27.633329999999997,4.5166699999999995
1189,Acfer 078,87,H5,105.0,1990.0,27.566670000000002,4.15
1190,Acfer 079,88,L6,387.0,1990.0,27.5,3.68333
1191,Acfer 080,89,L3.9,574.0,1990.0,27.633329999999997,4.5166699999999995
1192,Acfer 081,90,LL5-6,110.0,1990.0,27.53333,3.8666699999999996
1193,Acfer 082,91,CV3,208.0,1990.0,27.5,3.4833300000000005
1194,Acfer 083,92,L6,690.0,1990.0,27.48333,3.6333300000000004
1195,Acfer 084,93,H5,6300.0,1990.0,27.55,3.8666699999999996
1196,Acfer 085,94,H5,293.0,1990.0,27.58333,3.95
1197,Acfer 086,95,CV3,173.0,1990.0,27.66667,4.183330000000001
1198,Acfer 087,96,CR2,163.0,1990.0,27.7,4.2666699999999995
1199,Acfer 088,97,L6,200.0,1990.0,27.75,4.433330000000001
1200,Acfer 089,98,H5,682.0,1990.0,27.633329999999997,4.3
1201,Acfer 090,99,H5,290.0,1990.0,27.5,3.83333
1202,Acfer 091,100,LL5-6,3487.0,1990.0,27.45,4.11667
1203,Acfer 092,101,H5,244.0,1990.0,27.66667,4.5166699999999995
1204,Acfer 093,102,L5,420.0,1990.0,27.71667,4.13333
1206,Acfer 095,104,H3.7,104.0,1990.0,27.71667,4.38333
1207,Acfer 096,105,L4-5,572.0,1990.0,27.616670000000003,4.2
1209,Acfer 098,107,H5,5500.0,1990.0,27.46667,3.8833300000000004
1210,Acfer 099,108,H5,313.0,1990.0,27.45,3.83333
1211,Acfer 100,109,H6,140.0,1990.0,27.46667,3.95
1212,Acfer 101,110,L6,452.0,1990.0,27.53333,4.16667
1213,Acfer 102,111,L3-5,346.0,1990.0,27.66667,4.46667
1214,Acfer 103,112,H5,665.0,1990.0,27.8,4.5
1215,Acfer 104,113,H4/5,992.0,1990.0,27.633329999999997,4.36667
1216,Acfer 105,114,L6,392.0,1990.0,27.55,4.13333
1217,Acfer 106,115,LL6,1390.0,1990.0,27.5,3.9
1218,Acfer 107,116,L6,105.0,1990.0,27.45,3.75
1219,Acfer 108,117,H6,828.0,1990.0,27.5,3.8833300000000004
1220,Acfer 109,118,H4/5,236.0,1990.0,27.55,3.7666699999999995
1221,Acfer 110,119,L6,107.0,1990.0,27.48333,3.8
1222,Acfer 111,120,H3-6,987.0,1990.0,27.48333,3.8
1223,Acfer 112,121,LL4/5,216.0,1990.0,27.65,4.03333
1224,Acfer 113,122,LL6,2906.0,1990.0,27.566670000000002,4.03333
1226,Acfer 115,124,H6,287.0,1990.0,27.73333,4.16667
1227,Acfer 116,125,L6,345.0,1990.0,27.73333,4.16667
1228,Acfer 117,126,H4,178.0,1990.0,27.73333,4.2
1229,Acfer 118,127,L6,752.0,1990.0,27.66667,4.2
1230,Acfer 119,128,H3.8,121.0,1990.0,27.65,4.2333300000000005
1231,Acfer 120,129,LL6,861.0,1990.0,27.65,4.3
1232,Acfer 121,130,L5-6,427.0,1990.0,27.683329999999998,4.33333
1233,Acfer 122,131,L4/5,235.0,1990.0,27.5,3.66667
1234,Acfer 123,132,H3.9,452.0,1990.0,27.46667,3.7666699999999995
1235,Acfer 124,133,LL5-6,542.0,1990.0,27.6,4.05
1236,Acfer 125,134,L6,3380.0,1990.0,27.683329999999998,4.35
1237,Acfer 126,135,LL5-6,280.0,1990.0,27.51667,3.8
1238,Acfer 127,136,L6,699.0,1990.0,27.7,4.3
1239,Acfer 128,137,L6,163.0,1990.0,27.5,4.3
1240,Acfer 129,138,H3.7,162.0,1990.0,27.6,4.2
1241,Acfer 130,139,H5,400.0,1990.0,27.58333,4.0
1242,Acfer 131,140,LL6,171.0,1990.0,27.58333,3.9666699999999997
1243,Acfer 132,141,H6,1621.0,1990.0,27.5,3.7666699999999995
1244,Acfer 133,142,L3-5,362.0,1990.0,27.5,3.83333
1245,Acfer 134,143,L5,1161.0,1990.0,27.76667,4.53333
1246,Acfer 135,144,H5,124.0,1990.0,27.55,4.03333
1247,Acfer 136,145,H5,324.0,1990.0,27.46667,4.05
1248,Acfer 137,146,H4/5,106.0,1990.0,27.58333,4.08333
1249,Acfer 138,147,L5,941.0,1990.0,27.66667,4.08333
1250,Acfer 139,148,CR2,143.0,1990.0,27.566670000000002,4.08333
1251,Acfer 140,149,L5,171.0,1990.0,27.566670000000002,4.08333
1254,Acfer 143,152,L6,417.0,1990.0,27.66667,4.45
1255,Acfer 144,153,L6,186.0,1990.0,27.66667,4.28333
1256,Acfer 145,154,L6,869.0,1990.0,27.66667,4.28333
1257,Acfer 146,155,H5,200.0,1990.0,27.633329999999997,4.08333
1258,Acfer 147,156,L6,140.0,1990.0,27.6,4.11667
1259,Acfer 148,157,H5,157.0,1990.0,27.58333,4.066669999999999
1260,Acfer 149,158,L/LL6,394.0,1990.0,27.58333,4.05
1261,Acfer 150,159,H5,251.0,1990.0,27.566670000000002,3.81667
1262,Acfer 151,160,H5,218.0,1990.0,27.46667,3.7166699999999997
1263,Acfer 152,161,H5,157.0,1990.0,27.433329999999998,3.75
1264,Acfer 153,162,H3.6-6,211.0,1990.0,27.53333,3.95
1266,Acfer 155,164,L6,206.0,1990.0,27.66667,4.25
1267,Acfer 156,165,L6,240.0,1990.0,27.66667,4.2333300000000005
1268,Acfer 157,166,L6,1072.0,1990.0,27.66667,4.2333300000000005
1269,Acfer 158,167,H4/5,422.0,1990.0,27.66667,4.21667
1270,Acfer 159,168,H3.8,123.0,1990.0,27.5,3.93333
1271,Acfer 160,169,LL3.8-6,433.0,1990.0,27.46667,3.7166699999999997
1272,Acfer 161,170,H5,604.0,1990.0,27.75,4.433330000000001
1273,Acfer 162,171,H3-6,1281.0,1990.0,27.66667,4.0166699999999995
1274,Acfer 163,172,H3.8-5,125.0,1990.0,27.7,4.35
1277,Acfer 166,175,H3-5,2476.0,1990.0,27.51667,4.2333300000000005
1278,Acfer 167,176,L5,157.0,1990.0,27.51667,4.0
1279,Acfer 168,177,L6,211.0,1990.0,27.6,3.9833300000000005
1280,Acfer 169,178,H3.8/4,559.0,1990.0,27.73333,4.11667
1281,Acfer 171,179,H3.7,313.0,1990.0,27.65,4.25
1282,Acfer 172,180,L6,766.0,1990.0,27.66667,4.16667
1283,Acfer 173,181,H6,262.0,1990.0,27.65,4.03333
1284,Acfer 174,182,LL6,127.0,1990.0,27.48333,3.8666699999999996
1285,Acfer 175,183,LL5-6,153.0,1990.0,27.48333,3.85
1286,Acfer 176,184,LL5-6,320.0,1990.0,27.48333,3.85
1287,Acfer 177,185,LL5-6,721.0,1990.0,27.48333,3.85
1288,Acfer 178,186,H3.7,488.0,1990.0,27.48333,3.75
1289,Acfer 179,187,L6,163.0,1990.0,27.46667,3.75
1290,Acfer 180,188,H3.9-5,103.0,1990.0,27.6,4.16667
1291,Acfer 181,189,L6,245.0,1990.0,27.66667,4.2
1292,Acfer 182,190,CH3,166.0,1990.0,27.7,4.35
1293,Acfer 183,191,H5,114.0,1990.0,27.58333,4.16667
1294,Acfer 184,192,H5,311.0,1990.0,27.566670000000002,4.0166699999999995
1295,Acfer 185,193,LL5,109.0,1990.0,27.53333,3.83333
1296,Acfer 186,194,CR2,315.0,1990.0,27.46667,3.8666699999999996
1297,Acfer 187,195,CR2,234.0,1990.0,27.46667,3.9
1298,Acfer 188,196,H3.9/4,252.0,1990.0,27.58333,4.11667
1300,Acfer 190,198,L6,4439.0,1990.0,27.7,4.3
1301,Acfer 191,199,L6,188.0,1990.0,27.7,4.3
1302,Acfer 192,200,H3.9-5,219.0,1990.0,27.65,4.2
1303,Acfer 193,201,LL4-6,157.0,1990.0,27.566670000000002,3.95
1304,Acfer 194,202,H5,361.0,1991.0,27.499440000000003,3.6888900000000002
1305,Acfer 195,203,H6,233.0,1991.0,27.524720000000002,3.8113900000000003
1307,Acfer 197,205,L6,115.0,1991.0,27.55583,4.14
1308,Acfer 198,206,H6,267.0,1991.0,27.51694,3.7913900000000003
1309,Acfer 199,207,L4,215.0,1991.0,27.48028,3.8513900000000003
1310,Acfer 200,208,H3-6,1301.0,1991.0,27.50194,3.9211099999999997
1312,Acfer 202,210,CO3.5,389.0,1991.0,27.50889,4.6016699999999995
1313,Acfer 203,211,H5,292.0,1991.0,27.578059999999997,4.3691699999999996
1315,Acfer 205,213,H5,746.0,1991.0,27.7375,4.32806
1316,Acfer 206,214,H5,1229.0,1991.0,27.69083,4.37861
1317,Acfer 207,215,CH3,105.0,1991.0,27.688059999999997,4.37194
1318,Acfer 208,216,LL5,510.0,1991.0,27.504720000000002,3.88194
1319,Acfer 209,217,CR2,475.0,1991.0,27.504720000000002,3.88194
1320,Acfer 210,218,H3.7,720.0,1991.0,27.497220000000002,3.87028
1321,Acfer 211,219,H3.9,1009.0,1991.0,27.46472,3.7816699999999996
1322,Acfer 212,220,H5,1340.0,1991.0,27.612779999999997,3.7136099999999996
1323,Acfer 213,221,L6,526.0,1991.0,27.681109999999997,4.30694
1324,Acfer 214,222,CH3,612.0,1991.0,27.69,4.37861
1325,Acfer 215,223,L5,107.0,1991.0,27.640279999999997,4.17056
1326,Acfer 216,224,L6,293.0,1991.0,27.59972,4.90361
1327,Acfer 217,225,R3.8-5,174.0,1991.0,27.594440000000002,3.8858300000000003
1328,Acfer 218,226,L6,114.0,1991.0,27.54472,3.74306
1329,Acfer 219,227,H6,2611.0,1991.0,27.521390000000004,3.7913900000000003
1330,Acfer 220,228,H5,117.0,1991.0,27.52417,3.79694
1331,Acfer 221,229,H5/6,812.0,1991.0,27.5325,3.8136099999999997
1332,Acfer 222,230,H5/6,334.0,1991.0,27.541940000000004,3.82778
1333,Acfer 223,231,L/LL6,1398.0,1991.0,27.541940000000004,3.82778
1335,Acfer 225,233,H3,255.0,1991.0,27.64528,3.94389
1336,Acfer 226,234,H5,221.0,1991.0,27.684440000000002,3.99389
1338,Acfer 228,236,L5,2285.0,1991.0,27.573890000000002,4.11972
1339,Acfer 229,237,H5,325.0,1991.0,27.826109999999996,4.24611
1341,Acfer 231,239,H4/5,218.0,1991.0,27.734720000000003,4.31611
1342,Acfer 232,240,H5,725.0,1991.0,27.739440000000002,4.32833
1343,Acfer 233,241,H5/6,242.0,1991.0,27.71722,4.44806
1344,Acfer 234,242,"Iron, IAB-ung",621.0,1991.0,27.501109999999997,4.09861
1345,Acfer 235,243,H5,461.0,1991.0,27.518890000000003,4.0166699999999995
1347,Acfer 237,245,H3,673.0,1991.0,27.491670000000003,3.83278
1348,Acfer 238,246,H4/5,311.0,1991.0,27.50361,3.67306
1349,Acfer 239,247,H6,160.0,1991.0,27.484440000000003,3.6663900000000003
1350,Acfer 240,248,L6,342.0,1991.0,27.49833,3.69444
1352,Acfer 242,250,L6,318.0,1991.0,27.521109999999997,3.77333
1353,Acfer 244,252,H6,2045.0,1991.0,27.524720000000002,3.8097199999999996
1355,Acfer 246,254,L6,923.0,1991.0,27.692220000000002,3.3216699999999997
1357,Acfer 248,256,L3.9/4,402.0,1991.0,27.635559999999998,4.02528
1359,Acfer 250,258,H6,382.0,1991.0,27.55139,3.74194
1360,Acfer 251,259,LL5-6,202.0,1991.0,27.50972,3.88056
1361,Acfer 252,260,L6,146.0,1991.0,27.51111,3.88444
1364,Acfer 255,263,L6,124.0,1991.0,27.646109999999997,4.39722
1365,Acfer 256,264,H5/6,235.0,1991.0,27.646109999999997,4.39722
1367,Acfer 258,266,H6,212.0,1991.0,27.67056,4.3461099999999995
1368,Acfer 259,267,H3-6,114.0,1991.0,27.524440000000002,3.8736099999999998
1369,Acfer 260,268,H5,177.0,1991.0,27.475559999999998,3.7102800000000005
1372,Acfer 263,271,L6,438.0,1991.0,27.69111,4.3375
1373,Acfer 264,272,LL6,243.0,1991.0,27.69472,4.30639
1375,Acfer 266,274,L6,518.0,1991.0,27.727220000000003,4.17056
1376,Acfer 267,275,LL5-6,229.0,1991.0,27.510559999999998,3.71306
1377,Acfer 268,276,LL4-6,764.0,1991.0,27.513890000000004,3.8752800000000005
1378,Acfer 269,277,LL6,276.0,1991.0,27.51472,3.86556
1379,Acfer 270,278,CR2,298.0,1991.0,27.51861,3.85722
1380,Acfer 271,279,H6,237.0,1991.0,27.56111,4.05556
1382,Acfer 273,281,H5/6,2110.0,1991.0,27.621940000000002,4.45556
1383,Acfer 274,282,H6,203.0,1991.0,27.63389,4.18722
1384,Acfer 275,283,H5-6,429.0,1991.0,27.633609999999997,4.1730599999999995
1389,Acfer 280,288,L6,177.0,1991.0,27.53528,3.91278
1390,Acfer 281,289,L5,165.0,1991.0,27.54222,3.88444
1392,Acfer 283,291,H5,187.0,1991.0,27.70056,4.22944
1393,Acfer 284,292,H5,120.0,1991.0,27.70611,4.205830000000001
1395,Acfer 286,294,H6,407.0,1991.0,27.79472,4.1672199999999995
1399,Acfer 290,298,L6,213.0,1992.0,27.545279999999998,4.04861
1400,Acfer 291,299,H6,261.0,1992.0,27.708059999999996,4.24806
1401,Acfer 292,300,H5,432.0,1992.0,27.718609999999998,4.48611
1402,Acfer 293,301,LL6,198.0,1992.0,27.66583,4.19056
1403,Acfer 294,302,H4,457.0,1992.0,27.649720000000002,4.01194
1404,Acfer 295,303,LL6,217.0,1992.0,27.48333,3.9155599999999997
1405,Acfer 296,304,LL5-6,121.0,1992.0,27.58278,4.0
1407,Acfer 298,306,L6,2000.0,1992.0,27.70917,4.17444
1408,Acfer 299,307,LL4,180.0,1992.0,27.6825,4.42028
1409,Acfer 300,308,H6,270.0,1992.0,27.59028,4.15194
1410,Acfer 301,309,H4,162.0,1992.0,27.52722,3.8980599999999996
1414,Acfer 305,313,L6,369.0,1992.0,27.68722,4.18361
1415,Acfer 306,314,L6,129.0,1992.0,27.428890000000003,3.82
1416,Acfer 307,315,L5,520.0,1992.0,27.49083,3.8977800000000005
1418,Acfer 309,317,L6,185.0,1992.0,27.645559999999996,4.20444
1419,Acfer 310,318,H6,169.0,1992.0,27.683609999999998,4.25306
1420,Acfer 311,319,CR2,120.0,1992.0,27.508059999999997,3.8441699999999996
1421,Acfer 312,320,L5,364.0,1992.0,27.578609999999998,3.96889
1423,Acfer 314,322,H6,169.0,1992.0,27.663890000000002,4.09806
1424,Acfer 315,323,L/LL6,506.0,1992.0,27.699720000000003,4.18611
1425,Acfer 316,324,H6,126.0,1992.0,27.6875,4.245
1426,Acfer 317,325,H5,878.0,1992.0,27.592779999999998,4.40139
1427,Acfer 318,326,H5,292.0,1992.0,27.550279999999997,3.9980599999999997
1428,Acfer 319,327,L6,2393.0,1992.0,27.551940000000002,3.8161099999999997
1429,Acfer 320,328,H5,167.0,1992.0,27.460559999999997,3.88806
1430,Acfer 321,329,H5,157.0,2001.0,27.5455,4.06117
1432,Acfer 323,331,LL5,117.0,2001.0,27.503,3.8795
1435,Acfer 326,333,L6,139.0,1989.0,27.5,3.6166699999999996
1436,Acfer 327,334,H5,745.22,2001.0,27.73333,4.433330000000001
1437,Acfer 328,335,CV3,180.07,2001.0,27.73333,4.21667
1438,Acfer 329,336,L4/5,30000.0,2001.0,27.58333,4.1
1439,Acfer 330,337,L6,490.0,2001.0,27.65,4.03333
1440,Acfer 331,338,CM2,750.0,2001.0,27.58333,4.0166699999999995
1441,Acfer 332,339,CO3,115.02,2001.0,27.73333,4.13333
1442,Acfer 333,340,CO3,489.0,2001.0,27.566670000000002,4.066669999999999
1443,Acfer 334,341,L6,211.25,2002.0,27.65,4.38333
1444,Acfer 335,342,H4,261.0,2002.0,27.73333,4.433330000000001
1445,Acfer 336,343,L3.8,19400.0,2002.0,27.616670000000003,4.066669999999999
1446,Acfer 337,344,L3.8,360.0,2002.0,27.683329999999998,4.2666699999999995
1447,Acfer 338,345,H6,377.6,2002.0,27.71667,4.2666699999999995
1448,Acfer 339,346,H5,400.0,2002.0,27.55,4.2
1449,Acfer 340,347,L5,173.15,2002.0,27.58333,4.3
1450,Acfer 341,32781,L3,132.0,2002.0,27.46667,3.83333
1451,Acfer 342,348,L6,1276.0,2002.0,27.590559999999996,4.662780000000001
1452,Acfer 343,349,H3-5,140.0,2002.0,27.619721999999996,4.265
1453,Acfer 344,350,H3,410.0,2002.0,27.73333,4.19833
1455,Acfer 346,352,LL6,546.0,2002.0,27.590559999999996,4.662780000000001
1456,Acfer 347,353,L3,1165.0,2001.0,27.683329999999998,4.3
1457,Acfer 348,354,L5,8750.0,2001.0,27.979329999999997,4.278169999999999
1458,Acfer 349,355,H6,298.0,2001.0,27.840670000000003,4.31433
1459,Acfer 350,356,H4,128.0,2001.0,27.672,4.526330000000001
1460,Acfer 351,357,L6,211.0,2001.0,27.7,4.13333
1461,Acfer 352,358,L5,873.0,2001.0,27.76667,4.0166699999999995
1462,Acfer 353,359,Eucrite-cm,11935.0,2001.0,27.48917,3.89
1463,Acfer 354,360,LL5,252.0,2001.0,27.5005,3.8823300000000005
1464,Acfer 355,361,LL5,161.0,2002.0,27.58967,3.781
1465,Acfer 356,362,EL6,120.0,2002.0,27.61233,4.5285
1470,Acfer 361,366,H4,138.0,2002.0,27.429579999999998,3.87135
1471,Acfer 362,367,H5,242.8,2002.0,27.4778,3.70165
1472,Acfer 363,368,LL4,389.9,2002.0,27.58163,4.293880000000001
1473,Acfer 364,30431,LL6,656.0,2002.0,27.7,4.5166699999999995
1474,Acfer 365,30432,L5,1456.0,2002.0,27.60933,3.9356699999999996
1475,Acfer 366,32782,CH3,1456.0,2002.0,26.60933,3.9356699999999996
1476,Acfer 367,30433,H5,410.0,2002.0,27.68433,4.42917
1477,Acfer 368,30434,H4,126.0,2002.0,27.68883,4.386
1478,Acfer 369,30435,H4,122.0,2002.0,27.667,4.6483300000000005
1479,Acfer 370,32783,Chondrite-ung,129.0,2002.0,27.6725,4.356669999999999
1480,Acfer 371,34017,L5,9608.0,2002.0,27.67817,4.465330000000001
1481,Acfer 372,30436,LL6,238.0,2002.0,26.61167,3.887
1482,Acfer 373,30437,H5,128.0,2002.0,26.62583,3.9443300000000003
1483,Acfer 374,32784,CO3,118.0,2002.0,26.60867,4.053
1484,Acfer 375,30438,LL6,495.0,2002.0,27.5085,3.7638300000000005
1485,Acfer 376,30439,H6,132.0,2002.0,27.6395,3.935
1486,Acfer 377,30440,L4,132.0,2002.0,27.6625,3.97683
1487,Acfer 378,35480,LL6,1320.0,2003.0,27.4,3.75
1488,Acfer 379,35338,H4,14764.0,2004.0,27.4114,3.7046699999999997
1489,Acfer 380,35481,H5,849.0,2002.0,27.76667,4.41667
1490,Acfer 381,35482,L6,292.0,2002.0,27.7,4.45
1491,Acfer 382,35483,H5,101.0,2002.0,27.633329999999997,3.93333
1492,Acfer 386,44851,L5,200.0,2004.0,27.36017,3.7
1493,Acfer 387,44852,H4-6,177.0,2004.0,27.558,4.015
1494,Acfer 388,44853,H4,1072.0,2004.0,27.616670000000003,3.8666699999999996
1495,Acfer 389,44854,H5,397.0,2004.0,27.504,3.6816699999999996
1496,Acfer 390,44855,H4,578.0,2004.0,27.5025,3.693
1497,Acfer 391,53622,H4,388.0,2004.0,27.59617,4.172
1500,Acfer 394,53886,CR2,364.0,2001.0,27.51867,3.8803300000000003
1501,Acfer 395,53887,CR2,394.0,2001.0,27.50917,3.8876699999999995
1502,Acfer 396,53888,CR2,148.0,2001.0,27.512,3.8978300000000004
1503,Acfer 397,53889,CR2,105.0,2001.0,27.509,3.89583
1506,Acfer 400,55264,CR2,101.0,2001.0,27.50083,3.86617
1508,Achilles,369,H5,16000.0,1924.0,39.77667,-100.81333000000001
1509,Ackerly,55379,L5,3046.0,1995.0,32.59033,-101.77216999999999
1510,Acme,371,H5,75000.0,1947.0,33.63333,-104.26666999999999
1511,Acomita,372,"Pallasite, PMG",3956.0,1962.0,35.05,-107.56667
1512,Acuña,373,"Iron, IIIAB",217700.0,1981.0,29.316670000000002,-100.96667
1514,Adam Talha,44856,LL3.2,259.3,2005.0,22.9935,-10.15367
1515,Adams County,375,H5,5700.0,1928.0,39.96667,-103.76666999999999
1516,ad-Dahbubah,376,H5,90000.0,1961.0,19.83333,51.25
1518,Adelie Land,378,L5,1000.0,1912.0,-67.18333,142.38333
1519,Admire,380,"Pallasite, PMG",180000.0,1881.0,38.7,-96.1
1520,Adrar 001,381,H4/5,1917.0,1990.0,28.05,0.16667
1521,Adrar 002,382,L5,407.0,1990.0,27.816670000000002,0.13333
1522,Adrar 003,383,L/LL3.10,287.0,1990.0,27.133329999999997,0.2
1523,Adrar Bous,384,EL5,360.0,2001.0,20.5,9.0
1524,Adrar Chiriet,44703,L6,926.0,2003.0,19.640079999999998,9.35545
1525,Adrar Madet,385,H5/6,1113.0,1997.0,18.5,10.4
1526,Adrar Madet 002,386,LL3,2200.0,2002.0,18.61042,10.4941
1527,Adrar Yaouelt,387,H5,2730.0,2002.0,17.67987,10.03503
1528,Adrian,388,H4,22600.0,1936.0,35.15,-102.71667
1529,Adzhi-Bogdo (iron),389,"Iron, IAB complex",582000.0,1952.0,44.86667,95.41667
1530,Aggie Creek,393,"Iron, IIIAB",43000.0,1942.0,64.88333,-163.16666999999998
1531,Agoudal,57354,"Iron, IIAB",100000.0,2000.0,31.98457,-5.515280000000001
1533,Agua Blanca,397,"Iron, IIIAB",49000.0,1938.0,-28.91667,-66.95
1534,Aguas Calientes,399,H,260.1,1971.0,-25.5,-68.4
1535,Aguemour 001,400,H5,896.0,1990.0,26.96667,4.45
1536,Aguemour 002,401,L6,236.0,1990.0,26.96667,4.4
1537,Aguemour 003,402,L6,809.0,1990.0,27.366670000000003,4.5
1538,Aguemour 004,403,H5,1137.0,1990.0,27.33333,4.5
1539,Aguemour 005,404,H5,859.0,1991.0,27.43583,4.63861
1540,Aguemour 006,405,L6,435.0,1992.0,27.576390000000004,4.52528
1541,Aguemour 007,406,H4,334.0,1992.0,27.50778,4.6016699999999995
1543,Aguemour 009,408,L3.8,1446.0,1992.0,27.42861,4.1241699999999994
1544,Aguemour 010,409,H5,367.0,1993.0,27.360559999999996,4.944719999999999
1545,Aguemour 011,410,H4,207.0,1993.0,27.350279999999998,4.2025
1546,Aguemour 012,411,H5,347.0,1993.0,27.5175,4.19111
1547,Aguemour 013,412,L5,364.0,1993.0,27.56972,4.52556
1548,Aguemour 014,413,L5,167.0,1993.0,27.578059999999997,4.3225
1549,Aguemour 015,414,L4,1106.0,1993.0,27.50972,4.16111
1550,Aguemour 016,415,L5,177.0,1993.0,27.59167,4.31694
1551,Aguemour 017,416,L6,1000.0,2001.0,27.4,4.35
1552,Ahumada,419,"Pallasite, PMG",52600.0,1909.0,30.7,-105.5
1553,Aiken,421,OC,956.0,1936.0,34.2,-101.5
1554,Ainsworth,422,"Iron, IIAB",80650.0,1907.0,42.6,-99.8
1555,Akhricha,428,H,1760.0,1968.0,28.4625,1.025
1556,Akmolla,429,H4,114.0,1988.0,39.53833,59.558330000000005
1557,Akron (1940),430,H6,1050.0,1940.0,40.15,-103.16667
1558,Akron (1961),431,L6,4000.0,1961.0,40.15,-103.16667
1560,Al Haggounia 001,44857,Aubrite,3000000.0,2006.0,27.5,-12.5
1563,Al Huqf 003,436,L4,115.42,2002.0,19.50695,57.119519999999994
1564,Al Huqf 004,437,L5,260.22,2002.0,19.54482,57.09806999999999
1565,Al Huqf 005,438,L6,763.29,2002.0,19.84057,57.008480000000006
1566,Al Huqf 006,439,L6,1861.21,2002.0,19.840670000000003,57.008419999999994
1567,Al Huqf 007,440,L5,1042.7,2002.0,19.841279999999998,57.009530000000005
1568,Al Huqf 008,441,L6,1074.3,2002.0,19.842029999999998,57.00747
1570,Al Huqf 010,443,L6,41539.3,2002.0,19.86785,57.0028
1571,Al Huqf 011,444,L6,8056.0,2002.0,19.86607,57.0032
1572,Al Huqf 012,445,L6,402.75,2003.0,19.80252,57.321369999999995
1573,Al Huqf 050,35485,H4,1066.2,2002.0,19.60308,57.033319999999996
1574,Al Huqf 051,35486,L6,402.75,2003.0,19.80252,57.321369999999995
1575,Al Huqf 052,45822,H~5,1319.4,2001.0,19.65675,57.0433
1576,Al Huqf 053,45823,H~5,854.7,2001.0,19.61287,57.27038
1577,Al Huqf 054,45824,L~6,2936.5,2001.0,19.616120000000002,57.2698
1578,Al Huqf 055,45825,H4,1865.6,2001.0,19.640729999999998,57.28856999999999
1579,Al Huqf 056,45826,H5,124.0,2001.0,19.66453,57.3334
1580,Al Huqf 057,45827,H5,105.3,2001.0,19.53112,57.08427
1582,Al Huqf 059,45829,L~3,362.7,2001.0,19.31468,57.273430000000005
1583,Al Huqf 060,45830,L~6,913.1,2001.0,19.405179999999998,57.26818000000001
1585,Al Huqf 063,45832,L6,591.8,2006.0,19.44533,57.02345
1586,Al Huqf 064,48536,H4,12834.0,2002.0,19.404120000000002,57.274969999999996
1587,Al Huqf 065,48537,L6,2084.16,2007.0,19.32092,57.229769999999995
1588,Al Huqf 066,48538,L4,150.057,2007.0,19.51053,57.1292
1590,Al Huqf 068,51922,L3,165.4,2009.0,19.14025,57.58427
1591,Al Huqf 069,51923,H4/5,250.5,2009.0,19.26795,57.134119999999996
1592,Al Huqf 070,51937,L4,2632.8,2009.0,19.18798,57.10978000000001
1593,Al Huwaysah 001,55403,LL6,3150.5,2009.0,22.80487,55.32742
1594,Al Huwaysah 002,55404,LL6,690.5,2009.0,22.79853,55.31673000000001
1595,Al Huwaysah 003,55405,L4-6,273.05,2010.0,22.748620000000003,55.37323000000001
1596,Al Huwaysah 004,55406,H5,141.51,2010.0,22.747329999999998,55.395219999999995
1597,Al Huwaysah 005,55636,L(LL)3.5-3.7,1228.1,2010.0,22.733420000000002,55.331219999999995
1600,Al Huwaysah 008,55409,H4,356.2,2010.0,22.73797,55.32125
1601,Al Huwaysah 009,55410,H6,3407.8,2010.0,22.75747,55.414019999999994
1602,Al Huwaysah 010,55637,Achondrite-ung,1411.8,2010.0,22.74868,55.47218
1603,Al Huwaysah 011,55411,L4-5,112.76,2010.0,22.75978,55.3908
1604,Al Huwaysah 012,55412,H5,4694.9,2010.0,22.67752,55.34027
1608,Al Huwaysah 016,55414,H5,1330.9,2010.0,22.69813,55.3336
1609,Al Huwaysah 017,55415,L6,439.58,2010.0,22.73852,55.362469999999995
1612,Alamogordo,449,H5,13600.0,1938.0,32.9,-105.93333
1613,Alamosa,450,L6,1800.0,1937.0,37.46667,-105.86667
1614,Alatage,452,"Iron, IIIAB",37500.0,1959.0,42.33333,93.0
1615,Albin (pallasite),455,"Pallasite, PMG",37600.0,1915.0,41.5,-104.1
1616,Albin (stone),456,L,15400.0,1949.0,41.41667,-104.1
1617,Albion,457,"Iron, IVA",12280.0,1966.0,46.83333,-117.25
1618,Aldama (a),459,"Iron, IIIAB",11000.0,1985.0,28.83333,-105.86667
1620,Alexander County,464,"Iron, IAB complex",192.0,1875.0,35.75,-81.25
1621,Algarrobo,467,"Iron, IAB-ung",1280.0,1959.0,-27.08333,-70.58333
1622,al-Ghanim (iron),468,"Iron, IIIAB",500.0,1960.0,19.83333,54.083330000000004
1623,al-Ghanim (stone),469,L6,3755.0,1960.0,19.7,53.96666999999999
1624,Algoma,470,"Iron, IAB-sHL",4100.0,1887.0,44.65,-87.46667
1625,Alikatnima,471,"Iron, ungrouped",20000.0,1931.0,-23.33333,134.11667
1626,Aliskerovo,472,"Iron, IIIE-an",58400.0,1977.0,67.88333,167.5
1627,al-Jimshan,473,H4,11450.0,1955.0,20.7,52.833330000000004
1630,Alkhamasin,475,"Iron, IIAB",1200000.0,1973.0,20.6,44.88333
1633,Allan Hills 06001,44858,H5,128.1,2006.0,-76.71695,158.76862
1634,Allan Hills 06002,44859,H~5,119.2,2006.0,-76.74253,158.84305
1638,Allan Hills 06006,44863,H~5,280.9,2006.0,-76.70558,158.77587
1639,Allan Hills 06007,44864,H5,226.3,2006.0,-76.70551999999999,158.77583
1640,Allan Hills 06008,44865,H~5,120.0,2006.0,-76.70551999999999,158.77485
1664,Allan Hills 82103,479,H5,2529.2,1982.0,-76.89661,156.99137
1665,Allan Hills 82104,480,L5,398.8,1982.0,-77.05074,157.19834
1666,Allan Hills 82105,481,L6,363.3,1982.0,-77.04867,157.18333
1679,Allan Hills 82118,494,L6,110.9,1982.0,-77.04408000000001,157.2676
1683,Allan Hills 82122,498,H5,142.0,1982.0,-76.98507,156.90008999999998
1684,Allan Hills 82123,499,L6,110.8,1982.0,-76.94677,156.92971
1686,Allan Hills 82125,501,L6,178.4,1982.0,-76.98262,156.90998000000002
1687,Allan Hills 82126,502,H4,139.9,1982.0,-76.90692,157.0235
1706,Allan Hills 83001,521,L4,1568.6,1983.0,-76.72109,158.73715
1707,Allan Hills 83002,522,L5,367.1,1983.0,-76.71158,158.77453
1708,Allan Hills 83003,523,H5,321.8,1983.0,-76.71110999999999,159.42472
1709,Allan Hills 83004,524,L6,813.9,1983.0,-76.81849,158.15713
1710,Allan Hills 83005,525,H5,227.9,1983.0,-76.74472,159.40472
1711,Allan Hills 83006,526,H5,230.2,1983.0,-76.7188,158.77155
1712,Allan Hills 83007,527,LL3.4,285.0,1983.0,-76.76805999999999,159.33944
1713,Allan Hills 83008,528,L3.4-3.7,272.0,1983.0,-76.69167,159.37306
1715,Allan Hills 83010,530,LL3.3,395.2,1983.0,-76.76991,158.1405
1716,Allan Hills 83011,531,L5,213.3,1983.0,-76.69389,159.3875
1717,Allan Hills 83012,532,H5,202.7,1983.0,-76.71356,158.77754
1718,Allan Hills 83013,533,H6,246.3,1983.0,-76.75889000000001,159.34611
1775,Allan Hills 83070,590,LL6,215.7,1983.0,-76.82202,158.13058999999998
1780,Allan Hills 83100,595,CM1/2,3019.0,1983.0,-76.71667,159.66666999999998
1781,Allan Hills 83101,596,L6,639.2000000000002,1983.0,-76.98533,156.87608
1782,Allan Hills 83102,597,CM2,1786.2,1983.0,-77.04164,157.15458
1788,Allan Hills 83108,603,CO3.5,1519.4,1983.0,-77.04639,157.07721999999998
1789,Allan Hills 84001,604,Martian (OPX),1930.9,1984.0,-76.92031,156.77355
1790,Allan Hills 84002,605,L6,7554.0,1984.0,-76.74254,158.82886000000002
1791,Allan Hills 84003,606,H5,3088.7,1984.0,-76.73217,158.6696
1792,Allan Hills 84004,607,H4,9000.0,1984.0,-76.73156,158.67942
1793,Allan Hills 84005,608,L5,12000.0,1984.0,-76.89102,156.89321
1794,Allan Hills 84006,609,H4/5,16000.0,1984.0,-76.76228,158.77438
1795,Allan Hills 84007,610,Aubrite,705.6,1984.0,-76.87783,158.50193000000002
1796,Allan Hills 84008,611,Aubrite,301.6,1984.0,-76.88238,158.57931000000002
1797,Allan Hills 84009,612,Aubrite,335.6,1984.0,-76.86569,158.52417
1798,Allan Hills 84010,613,Aubrite,303.0,1984.0,-76.88571999999999,158.61378
1799,Allan Hills 84011,614,Aubrite,138.2,1984.0,-76.87850999999999,158.61831
1800,Allan Hills 84012,615,Aubrite,224.7,1984.0,-76.88304000000001,158.53214
1801,Allan Hills 84013,616,Aubrite,159.9,1984.0,-76.8982,158.59203
1803,Allan Hills 84015,618,Aubrite,263.9,1984.0,-76.88495,158.60279
1804,Allan Hills 84016,619,Aubrite,149.7,1984.0,-76.88429000000001,158.58777
1808,Allan Hills 84020,623,Aubrite,191.1,1984.0,-76.86997,158.53785
1811,Allan Hills 84023,626,Aubrite,262.4,1984.0,-76.89846,158.58451000000002
1812,Allan Hills 84024,627,Aubrite,194.4,1984.0,-76.872,158.54311
1815,Allan Hills 84028,630,CV3,735.9,1984.0,-76.77065999999999,158.8921
1816,Allan Hills 84029,631,CM2,119.8,1984.0,-77.04239,157.07331000000002
1831,Allan Hills 84044,646,CM2,147.4,1984.0,-77.04295,157.07145
1842,Allan Hills 84055,657,H5,6900.5,1984.0,-76.72944,158.74157
1843,Allan Hills 84056,658,L6,2140.3,1984.0,-76.71667,159.66666999999998
1844,Allan Hills 84057,659,L6,368.2,1984.0,-76.83592,158.25518
1845,Allan Hills 84058,660,L6,2002.5,1984.0,-77.02175,156.99983999999998
1846,Allan Hills 84059,661,H4,856.9,1984.0,-76.76988,158.80378000000002
1847,Allan Hills 84060,662,H5,338.9,1984.0,-76.89371,156.98032
1848,Allan Hills 84061,663,L6,676.4,1984.0,-76.99289,156.95507
1849,Allan Hills 84062,664,L6,958.2,1984.0,-76.92062,156.8752
1850,Allan Hills 84063,665,L5,759.6,1984.0,-76.98268,156.9338
1851,Allan Hills 84064,666,H5,1889.1,1984.0,-76.91490999999999,156.9387
1852,Allan Hills 84065,667,L6,1641.7,1984.0,-76.89909,156.83414
1853,Allan Hills 84066,668,L6,355.8,1984.0,-76.72596999999999,158.64803
1854,Allan Hills 84067,669,H5,391.2,1984.0,-76.72476999999999,158.71596
1855,Allan Hills 84068,670,H5,1114.1,1984.0,-76.92766,156.94055
1856,Allan Hills 84069,671,H5,1136.3,1984.0,-76.75137,158.84018
1857,Allan Hills 84070,672,L6,3951.7,1984.0,-76.90824,156.8802
1858,Allan Hills 84071,673,H6,797.7,1984.0,-76.71667,159.66666999999998
1859,Allan Hills 84072,674,L6,720.9,1984.0,-76.83570999999999,158.26384
1860,Allan Hills 84073,675,H5,630.6,1984.0,-76.91608000000001,156.97014
1861,Allan Hills 84074,676,H5,757.5,1984.0,-77.02126,156.98388
1862,Allan Hills 84075,677,H5,788.6,1984.0,-76.72144,158.76413
1863,Allan Hills 84076,678,H5,368.7,1984.0,-76.99148000000001,156.96855
1864,Allan Hills 84077,679,H5,276.4,1984.0,-76.96265,156.92887
1865,Allan Hills 84078,680,H5,283.3,1984.0,-77.0238,157.01072
1866,Allan Hills 84079,681,L6,749.6,1984.0,-76.90892,156.87923999999998
1867,Allan Hills 84080,682,L6,286.8,1984.0,-76.89721999999999,156.8853
1868,Allan Hills 84081,683,LL6,612.3,1984.0,-76.92365,156.95123999999998
1869,Allan Hills 84082,684,H6,556.6,1984.0,-76.89074000000001,157.05899
1870,Allan Hills 84083,685,H6,419.7,1984.0,-76.76679,158.79648999999998
1871,Allan Hills 84084,686,H4,331.8,1984.0,-76.89684,156.88501000000002
1872,Allan Hills 84085,687,H5,554.2,1984.0,-76.72553,158.71679
1873,Allan Hills 84086,688,L3.8,234.0,1984.0,-77.04172,157.02258
1874,Allan Hills 84087,689,L6,314.6,1984.0,-76.90892,156.8798
1875,Allan Hills 84088,690,H5,297.5,1984.0,-76.90225,156.92287
1876,Allan Hills 84089,691,H5,303.8,1984.0,-76.90637,156.96454
1877,Allan Hills 84090,692,L6,201.8,1984.0,-76.82607,158.22142
1878,Allan Hills 84091,693,H5,214.6,1984.0,-77.03872,157.21351
1879,Allan Hills 84092,694,L6,213.9,1984.0,-76.89986999999999,156.97472
1880,Allan Hills 84093,695,H6,113.5,1984.0,-76.86669,158.52076
1881,Allan Hills 84094,696,H5,207.6,1984.0,-76.87818,157.00095
1882,Allan Hills 84095,697,L6,276.8,1984.0,-76.93506,156.91791
1883,Allan Hills 84096,698,LL6(?),293.6,1984.0,-76.83027,158.31856000000002
1884,Allan Hills 84097,699,L6,388.7,1984.0,-76.91001,156.72089
1885,Allan Hills 84098,700,H5,260.5,1984.0,-76.87519,156.98998999999998
1886,Allan Hills 84099,701,H5,150.3,1984.0,-76.87679,156.99721
1887,Allan Hills 84100,702,H5,110.3,1984.0,-76.74282,158.83369
1888,Allan Hills 84101,703,H6,220.9,1984.0,-76.71667,159.66666999999998
1889,Allan Hills 84102,704,L6,213.9,1984.0,-76.91024,156.79453
1890,Allan Hills 84103,705,H4,137.5,1984.0,-76.75705,158.76998999999998
1891,Allan Hills 84104,706,L6,201.1,1984.0,-77.01648,156.97919
1892,Allan Hills 84105,707,H6,260.9,1984.0,-76.75498,158.76252
1894,Allan Hills 84107,709,LL6,134.1,1984.0,-77.04441,157.14713999999998
1895,Allan Hills 84108,710,H6,214.8,1984.0,-76.90198000000001,156.76583
1896,Allan Hills 84109,711,H6,245.9,1984.0,-76.75371,158.76658999999998
1897,Allan Hills 84110,712,H6,318.5,1984.0,-76.75568,158.76154
1898,Allan Hills 84111,713,H5,131.5,1984.0,-76.74202,159.28689
1899,Allan Hills 84112,714,L6,145.8,1984.0,-76.90657,156.81312
1900,Allan Hills 84113,715,H6,212.1,1984.0,-76.74688,158.8072
1901,Allan Hills 84114,716,H6,119.9,1984.0,-76.9768,156.91717
1902,Allan Hills 84115,717,H6,194.5,1984.0,-77.04366,157.09028
1905,Allan Hills 84118,720,H6,113.7,1984.0,-76.72107,159.35988
1907,Allan Hills 84120,722,L3.8,129.0,1984.0,-76.90505,156.94031999999999
1908,Allan Hills 84121,723,H5,141.4,1984.0,-76.72513000000001,158.7146
1911,Allan Hills 84124,726,H5,114.5,1984.0,-76.72475,158.7157
1918,Allan Hills 84131,733,H5,107.9,1984.0,-76.72553,158.71352
1919,Allan Hills 84132,734,L6,157.8,1984.0,-77.01706,156.96282
1921,Allan Hills 84134,736,L6,113.4,1984.0,-76.90037,156.77608
1924,Allan Hills 84137,739,H5,145.4,1984.0,-76.72618,158.71187
1926,Allan Hills 84139,741,H5,157.1,1984.0,-76.7528,158.76289
1927,Allan Hills 84140,742,L6,164.0,1984.0,-77.0238,156.99656000000002
1928,Allan Hills 84141,743,L6,130.3,1984.0,-76.90681,156.84795
1935,Allan Hills 84148,750,H5,168.4,1984.0,-76.72522,158.71588
1938,Allan Hills 84151,753,H6,112.4,1984.0,-76.75323,158.76609
1940,Allan Hills 84153,755,H6,242.9,1984.0,-76.97272,156.90759
1942,Allan Hills 84155,757,H5,113.9,1984.0,-76.90557,156.85267
1946,Allan Hills 84159,761,H6,100.8,1984.0,-76.72351,158.70345
1950,Allan Hills 84163,765,H5,134.9,1984.0,-76.89216,157.07175
1951,Allan Hills 84164,766,L6,101.4,1984.0,-76.82065,158.25808
1954,Allan Hills 84167,769,H5,150.7,1984.0,-76.69004,159.35472
2051,Allan Hills 84264,866,L6,137.6,1984.0,-77.05037,157.19686000000002
2052,Allan Hills 85001,867,Eucrite-Mg rich,212.3,1985.0,-76.8389,156.45213
2053,Allan Hills 85002,868,CK4,437.7,1985.0,-76.91660999999999,156.53194
2064,Allan Hills 85013,879,CM2,130.4,1985.0,-76.89057,156.46268
2067,Allan Hills 85016,882,L6,1412.0,1985.0,-76.99984,156.95922
2068,Allan Hills 85017,883,L6,2361.4,1985.0,-76.9033,156.75663
2069,Allan Hills 85018,884,H6,811.8,1985.0,-76.88268000000001,156.49194
2070,Allan Hills 85019,885,LL6,632.8,1985.0,-76.91508,156.53178
2071,Allan Hills 85020,886,H6,744.3,1985.0,-76.90701,156.78603
2072,Allan Hills 85021,887,H5,646.8,1985.0,-76.85498,156.46606
2073,Allan Hills 85022,888,L6,951.5,1985.0,-76.84391,156.36709
2074,Allan Hills 85023,889,H6,438.5,1985.0,-76.83755,156.41507
2075,Allan Hills 85024,890,H5,387.7,1985.0,-76.84525,156.43343000000002
2076,Allan Hills 85025,891,H5,713.0,1985.0,-76.85539,156.47991000000002
2077,Allan Hills 85026,892,L6,817.1,1985.0,-76.85858,156.26751000000002
2078,Allan Hills 85027,893,L6,370.4,1985.0,-76.91433,156.63031999999998
2079,Allan Hills 85028,894,H6,325.7,1985.0,-76.84829,156.43594
2080,Allan Hills 85029,895,L6,388.8,1985.0,-76.83961,156.40872
2081,Allan Hills 85030,896,H6,619.7000000000002,1985.0,-76.88918000000001,156.51355
2082,Allan Hills 85031,897,H6,200.6,1985.0,-76.89914,156.5252
2083,Allan Hills 85032,898,H6,424.2,1985.0,-76.86321,156.43632
2084,Allan Hills 85033,899,L4,249.8,1985.0,-76.86198,156.43418
2085,Allan Hills 85034,900,L6,343.9,1985.0,-76.92308,156.58744
2086,Allan Hills 85035,901,LL6,420.1,1985.0,-76.73732,159.39193999999998
2087,Allan Hills 85036,902,H6,231.5,1985.0,-76.83830999999999,156.33386000000002
2088,Allan Hills 85037,903,H6,141.2,1985.0,-76.75225,159.38956000000002
2089,Allan Hills 85038,904,H5,124.9,1985.0,-76.82632,156.13873
2090,Allan Hills 85039,905,L6,140.2,1985.0,-76.90414,156.68119
2092,Allan Hills 85041,907,H6,168.0,1985.0,-76.70546999999999,159.38484
2093,Allan Hills 85042,908,H5,127.9,1985.0,-76.90211,156.8671
2094,Allan Hills 85043,909,H5,204.7,1985.0,-76.91425,156.5072
2095,Allan Hills 85044,910,H6,104.8,1985.0,-76.70541,159.38493
2096,Allan Hills 85045,911,L3.8,145.0,1985.0,-76.85985,156.43233999999998
2097,Allan Hills 85046,912,L6,148.9,1985.0,-76.90369,156.87059
2113,Allan Hills 85062,928,H3.5-4,167.3,1985.0,-76.84510999999999,156.20617
2179,Allan Hills 85129,994,LL6,127.4,1985.0,-76.90519,156.75363000000002
2210,Allan Hills 86600,1025,L6,411.1,1986.0,-76.69516999999999,159.36667
2211,Allan Hills 86601,1026,H5,309.0,1986.0,-76.71667,159.66666999999998
2212,Allan Hills 86602,1027,L6,264.5,1986.0,-76.72584,159.40905
2213,Allan Hills 86603,1028,H5,104.5,1986.0,-76.72946999999999,159.41326
2223,Allan Hills 87900,1038,L6,8000.0,1987.0,-76.75009,159.34471000000002
2230,Allan Hills 88001,1045,H5,415.0,1988.0,-76.69221999999999,159.29576
2231,Allan Hills 88002,1046,L4,358.4,1988.0,-76.72211,158.69336
2232,Allan Hills 88003,1047,L4,341.0,1988.0,-76.70741,159.32372
2233,Allan Hills 88004,1048,LL4,315.7,1988.0,-76.72991,158.75413999999998
2234,Allan Hills 88005,1049,L6,282.0,1988.0,-76.71667,159.66666999999998
2235,Allan Hills 88006,1050,L4,233.0,1988.0,-76.73304,158.75694
2236,Allan Hills 88007,1051,H5,156.0,1988.0,-76.72606,158.77571
2237,Allan Hills 88008,1052,H4/5,153.5,1988.0,-76.69325,159.34808999999998
2238,Allan Hills 88009,1053,H5,152.0,1988.0,-76.69227,159.32883999999999
2239,Allan Hills 88010,1054,H4/5,141.5,1988.0,-76.72213,158.71676000000002
2240,Allan Hills 88011,1055,H3,103.0,1988.0,-76.72395,158.74208000000002
2241,Allan Hills 88012,1056,L6,102.5,1988.0,-76.72243,158.7182
2356,Allan Hills 90401,1244,LL6,274.1,1990.0,-76.72511,159.19525
2360,Allan Hills 90405,1248,L4,210.4,1990.0,-76.73758000000001,159.40921
2366,Allan Hills 90411,1254,L3.7,5836.5,1990.0,-76.98079,156.93013
2370,Allan Hills 94001,1258,L/LL4,196.5,1994.0,-76.71667,159.66666999999998
2400,Allan Hills 97100,1288,L6,342.8,1997.0,-76.71667,159.66666999999998
2401,Allan Hills 97101,1289,H5,222.4,1997.0,-76.71667,159.66666999999998
2402,Allan Hills 97102,1290,H5,190.3,1997.0,-76.71667,159.66666999999998
2412,Allan Hills 99101,1300,LL3,103.4,2000.0,-76.76098,159.45252
2417,Allan Hills 99504,1305,H6,186.0,1999.0,-76.71667,159.66666999999998
2418,Allan Hills 99505,1306,H6,453.6,1999.0,-76.71667,159.66666999999998
2419,Allan Hills 99506,1307,H5,1009.2,1999.0,-76.71667,159.66666999999998
2420,Allan Hills A76001,1308,L6,20151.0,1976.0,-76.75,159.33333000000002
2421,Allan Hills A76002,1309,"Iron, IAB-MG",1510.0,1976.0,-76.71667,159.66666999999998
2422,Allan Hills A76003,1310,L6,10495.0,1976.0,-76.71667,159.66666999999998
2423,Allan Hills A76004,1311,LL3.3,305.0,1976.0,-76.71667,159.66666999999998
2424,Allan Hills A76005,1312,Eucrite-pmict,1425.0,1976.0,-76.71667,159.66666999999998
2425,Allan Hills A76006,1313,H6,1137.0,1976.0,-76.71667,159.66666999999998
2426,Allan Hills A76007,1314,L6,410.0,1976.0,-76.71667,159.66666999999998
2427,Allan Hills A76008,1315,H6,1150.0,1976.0,-76.71667,159.66666999999998
2428,Allan Hills A76009,1316,L6,407000.0,1976.0,-76.71667,159.66666999999998
2429,Allan Hills A77001,1317,L6,252.0,1977.0,-76.75,159.33333000000002
2430,Allan Hills A77002,1318,L5,235.2,1977.0,-76.71667,159.66666999999998
2431,Allan Hills A77003,1319,CO3.6,779.6,1977.0,-76.71667,159.66666999999998
2432,Allan Hills A77004,1320,H4,2230.0,1977.0,-76.71667,159.66666999999998
2433,Allan Hills A77005,1321,Martian (shergottite),482.5,1977.0,-76.71667,159.66666999999998
2436,Allan Hills A77009,1324,H4,235.5,1977.0,-76.71667,159.66666999999998
2437,Allan Hills A77010,1325,H4,295.8,1977.0,-76.71667,159.66666999999998
2438,Allan Hills A77011,1326,L3.5,291.5,1977.0,-76.71667,159.66666999999998
2439,Allan Hills A77012,1327,H5,180.2,1977.0,-76.71667,159.66666999999998
2441,Allan Hills A77014,1329,H5,308.8,1977.0,-76.71667,159.66666999999998
2442,Allan Hills A77015,1330,L3.5,411.1,1977.0,-76.71667,159.66666999999998
2478,Allan Hills A77052,1366,L3.5,112.2,1977.0,-76.71667,159.66666999999998
2538,Allan Hills A77115,1427,L3.5,154.4,1977.0,-76.71667,159.66666999999998
2555,Allan Hills A77132,1444,H5,115.4,1977.0,-76.71667,159.66666999999998
2578,Allan Hills A77155,1467,L6,305.3,1977.0,-76.71667,159.66666999999998
2589,Allan Hills A77166,1478,L3.5,138.8,1977.0,-76.71667,159.66666999999998
2590,Allan Hills A77167,1479,L3.4,611.2000000000002,1977.0,-76.71667,159.66666999999998
2600,Allan Hills A77177,1489,H5,368.2,1977.0,-76.71667,159.66666999999998
2603,Allan Hills A77180,1492,L6,190.8,1977.0,-76.71667,159.66666999999998
2605,Allan Hills A77182,1494,H5,1134.7,1977.0,-76.71667,159.66666999999998
2606,Allan Hills A77183,1495,H6,288.0,1977.0,-76.71667,159.66666999999998
2607,Allan Hills A77184,1496,H5,127.6,1977.0,-76.71667,159.66666999999998
2609,Allan Hills A77186,1498,H5,122.4,1977.0,-76.71667,159.66666999999998
2611,Allan Hills A77188,1500,H5,109.0,1977.0,-76.71667,159.66666999999998
2612,Allan Hills A77190,1501,H4,387.1,1977.0,-76.71667,159.66666999999998
2613,Allan Hills A77191,1502,H4,642.2000000000002,1977.0,-76.71667,159.66666999999998
2614,Allan Hills A77192,1503,H4,845.3,1977.0,-76.71667,159.66666999999998
2630,Allan Hills A77208,1519,H4,1733.0,1977.0,-76.71667,159.66666999999998
2636,Allan Hills A77214,1525,L3.4,2111.0,1977.0,-76.71667,159.66666999999998
2637,Allan Hills A77215,1526,L3.8,819.6,1977.0,-76.71667,159.66666999999998
2638,Allan Hills A77216,1527,L3.7-3.9,1470.0,1977.0,-76.71667,159.66666999999998
2639,Allan Hills A77217,1528,L3,413.2,1977.0,-76.71667,159.66666999999998
2641,Allan Hills A77219,1530,Mesosiderite-B1,637.1,1977.0,-76.71667,159.66666999999998
2643,Allan Hills A77221,1532,H4,229.2,1977.0,-76.71667,159.66666999999998
2644,Allan Hills A77222,1533,H4,125.4,1977.0,-76.71667,159.66666999999998
2645,Allan Hills A77223,1534,H4,207.9,1977.0,-76.71667,159.66666999999998
2646,Allan Hills A77224,1535,H4,786.9,1977.0,-76.71667,159.66666999999998
2647,Allan Hills A77225,1536,H4,5878.0,1977.0,-76.71667,159.66666999999998
2648,Allan Hills A77226,1537,H4,15323.0,1977.0,-76.71667,159.66666999999998
2652,Allan Hills A77230,1541,L4,2473.0,1977.0,-76.71667,159.66666999999998
2653,Allan Hills A77231,1542,L6,9270.0,1977.0,-76.71667,159.66666999999998
2654,Allan Hills A77232,1543,H4,6494.3,1977.0,-76.71667,159.66666999999998
2655,Allan Hills A77233,1544,H4,4087.0,1977.0,-76.71667,159.66666999999998
2662,Allan Hills A77241,1552,L3.5,144.1,1977.0,-76.71667,159.66666999999998
2670,Allan Hills A77249,1560,L3.5,503.6,1977.0,-76.71667,159.66666999999998
2671,Allan Hills A77250,1561,"Iron, IAB-MG",10555.0,1977.0,-76.71667,159.66666999999998
2673,Allan Hills A77252,1563,L3-6,343.1,1977.0,-76.71667,159.66666999999998
2675,Allan Hills A77254,1565,L5,245.8,1977.0,-76.71667,159.66666999999998
2676,Allan Hills A77255,1566,"Iron, ungrouped",765.1,1977.0,-76.71667,159.66666999999998
2677,Allan Hills A77256,1567,Diogenite,676.2,1977.0,-76.71667,159.66666999999998
2678,Allan Hills A77257,1568,Ureilite,1995.7,1977.0,-76.71667,159.66666999999998
2679,Allan Hills A77258,1569,H6,597.3,1977.0,-76.71667,159.66666999999998
2680,Allan Hills A77259,1570,H5,294.0,1977.0,-76.71667,159.66666999999998
2681,Allan Hills A77260,1571,L3.5,744.3,1977.0,-76.71667,159.66666999999998
2682,Allan Hills A77261,1572,L6,411.7,1977.0,-76.71667,159.66666999999998
2683,Allan Hills A77262,1573,H4,861.5,1977.0,-76.71667,159.66666999999998
2684,Allan Hills A77263,1574,"Iron, IAB-MG",1669.0,1977.0,-76.71667,159.66666999999998
